$GPRMB,A,,,,,,,,,,,,A,A*0B
$GPGGA,134028,4924.5643,N,00842.8212,E,1,07,1.6,200.8,M,47.9,M,,*46
$GPGSA,A,3,02,03,17,18,21,22,31,,,,,,3.7,1.6,2.1*3D
$GPGSV,3,1,12,02,35,305,35,03,58,292,00,06,01,103,00,15,63,060,00*79
$GPGSV,3,2,12,17,46,056,43,18,45,110,39,21,34,155,45,22,55,202,49*70
$GPGSV,3,3,12,23,29,049,00,26,06,054,00,27,11,324,00,31,18,288,00*77
$GPGLL,4924.5643,N,00842.8212,E,134028,A,A*43
$GPBOD,,T,,M,,*47
$PGRME,6.0,M,18.7,M,20.0,M*24
$PGRMZ,659,f,3*11
$GPRTE,1,1,c,*37
$GPRMC,134030,A,4924.5644,N,00842.8216,E,0.0,191.3,010302,0.2,E,A*1D
$GPRMB,A,,,,,,,,,,,,A,A*0B
$GPGGA,134030,4924.5644,N,00842.8216,E,1,06,5.0,201.7,M,47.9,M,,*41
$GPGSA,A,3,02,17,18,21,22,31,,,,,,,7.6,5.0,4.6*38
$GPGSV,3,1,12,02,35,305,35,03,58,292,00,06,01,103,00,15,63,060,00*79
$GPGSV,3,2,12,17,46,056,42,18,45,110,37,21,34,155,44,22,55,202,49*7E
$GPGSV,3,3,12,23,29,049,00,26,06,054,00,27,11,324,00,31,18,288,00*77
$GPGLL,4924.5644,N,00842.8216,E,134030,A,A*49
$GPBOD,,T,,M,,*47
$PGRME,7.0,M,18.7,M,20.2,M*27
$PGRMZ,662,f,3*19
$GPRTE,1,1,c,*37
$GPRMC,134032,A,4924.5640,N,00842.8216,E,0.0,191.3,010302,0.2,E,A*1B
$GPRMB,A,,,,,,,,,,,,A,A*0B
$GPGGA,134032,4924.5640,N,00842.8216,E,1,07,4.6,202.4,M,47.9,M,,*41
$GPGSA,A,3,02,03,17,18,21,22,31,,,,,,4.7,4.6,1.0*3D
$GPGSV,3,1,12,02,35,305,35,03,58,292,37,06,01,103,00,15,63,060,00*7D
$GPGSV,3,2,12,17,46,056,40,18,45,110,41,21,34,155,44,22,55,202,49*7D
$GPGSV,3,3,12,23,29,049,00,26,06,053,00,27,11,324,00,31,18,288,00*70
$GPGLL,4924.5640,N,00842.8216,E,134032,A,A*4F
$GPBOD,,T,,M,,*47
$PGRME,8.4,M,20.1,M,22.2,M*23
$PGRMZ,664,f,3*1F
$GPRTE,1,1,c,*37
$GPRMC,134034,A,4924.5639,N,00842.8219,E,0.0,191.3,010302,0.2,E,A*1C
$GPRMB,A,,,,,,,,,,,,A,A*0B
$GPGGA,134034,4924.5639,N,00842.8219,E,1,06,3.4,203.2,M,47.9,M,,*45
$GPGSA,A,3,02,03,17,18,21,22,,,,,,,4.3,3.4,1.8*36
$GPGSV,3,1,12,02,35,305,34,03,58,292,36,06,01,103,00,15,63,060,00*7D
$GPGSV,3,2,12,17,46,056,42,18,45,110,41,21,34,155,44,22,55,202,48*7E
$GPGSV,3,3,12,23,29,049,00,26,06,053,00,27,11,324,00,31,18,288,00*70
$GPGLL,4924.5639,N,00842.8219,E,134034,A,A*48
$GPBOD,,T,,M,,*47
$PGRME,7.3,M,21.1,M,23.1,M*28
$PGRMZ,667,f,3*1C
$GPRTE,1,1,c,*37
$GPRMC,134036,A,4924.5637,N,00842.8220,E,0.0,191.3,010302,0.2,E,A*1A
$GPRMB,A,,,,,,,,,,,,A,A*0B
$GPGGA,134036,4924.5637,N,00842.8220,E,1,06,2.2,203.8,M,47.9,M,,*4E
$GPGSA,A,3,02,03,17,18,21,22,,,,,,,3.1,2.2,1.0*3C
$GPGSV,3,1,12,02,35,305,00,03,58,292,00,06,01,103,00,15,63,060,00*7F
$GPGSV,3,2,12,17,46,056,42,18,45,110,41,21,34,155,43,22,55,202,48*79
$GPGSV,3,3,12,23,29,049,00,26,06,053,00,27,11,324,00,31,18,288,00*70
$GPGLL,4924.5637,N,00842.8220,E,134036,A,A*4E
$GPBOD,,T,,M,,*47
$PGRME,7.7,M,21.1,M,23.2,M*2F
$PGRMZ,669,f,3*12
$GPRTE,1,1,c,*37
$GPRMC,134038,A,4924.5636,N,00842.8224,E,0.0,191.3,010302,0.2,E,A*11
$GPRMB,A,,,,,,,,,,,,A,A*0B
$GPGGA,134038,4924.5636,N,00842.8224,E,1,07,2.3,204.6,M,47.9,M,,*4C
$GPGSA,A,3,02,03,15,17,18,21,22,,,,,,3.7,2.3,1.8*37
$GPGSV,3,1,12,02,35,305,00,03,58,292,35,06,01,103,00,15,63,060,40*7D
$GPGSV,3,2,12,17,46,056,41,18,45,110,42,21,34,155,42,22,55,202,47*77
$GPGSV,3,3,12,23,29,049,00,26,06,053,00,27,11,324,00,31,18,288,00*70
$GPGLL,4924.5636,N,00842.8224,E,134038,A,A*45
$GPBOD,,T,,M,,*47
$PGRME,7.3,M,22.4,M,24.4,M*2C
$PGRMZ,671,f,3*1B
$GPRTE,1,1,c,*37
$GPRMC,134040,A,4924.5634,N,00842.8227,E,0.0,191.3,010302,0.2,E,A*1F
$GPRMB,A,,,,,,,,,,,,A,A*0B
$GPGGA,134040,4924.5634,N,00842.8227,E,1,07,2.3,205.5,M,47.9,M,,*40
$GPGSA,A,3,02,03,15,17,18,21,22,,,,,,2.5,2.3,1.0*3C
$GPGSV,3,1,12,02,35,305,34,03,58,292,00,06,01,103,00,15,63,060,40*7C
$GPGSV,3,2,12,17,46,056,40,18,45,110,42,21,34,155,42,22,55,202,48*79
$GPGSV,3,3,12,23,29,049,00,26,06,053,00,27,11,324,00,31,18,288,00*70
$GPGLL,4924.5634,N,00842.8227,E,134040,A,A*4B
$GPBOD,,T,,M,,*47
$PGRME,5.8,M,14.3,M,15.4,M*25
$PGRMZ,674,f,3*1E
$GPRTE,1,1,c,*37
$GPRMC,134042,A,4924.5633,N,00842.8227,E,0.0,191.3,010302,0.2,E,A*1A
$GPRMB,A,,,,,,,,,,,,A,A*0B
$GPGGA,134042,4924.5633,N,00842.8227,E,1,08,2.3,206.0,M,47.9,M,,*4C
$GPGSA,A,3,02,03,15,17,18,21,22,31,,,,,3.0,2.3,1.6*3C
$GPGSV,3,1,12,02,35,305,35,03,58,292,00,06,01,103,00,15,63,060,39*73
$GPGSV,3,2,12,17,46,056,40,18,45,110,41,21,34,155,42,22,55,202,47*75
$GPGSV,3,3,12,23,29,049,00,26,06,053,00,27,11,324,00,31,18,288,31*72
$GPGLL,4924.5633,N,00842.8227,E,134042,A,A*4E
$GPBOD,,T,,M,,*47
$PGRME,4.9,M,11.5,M,12.5,M*20
$PGRMZ,676,f,3*1C
$GPRTE,1,1,c,*37
$GPRMC,134044,A,4924.5633,N,00842.8228,E,0.0,191.3,010302,0.2,E,A*13
$GPRMB,A,,,,,,,,,,,,A,A*0B
$GPGGA,134044,4924.5633,N,00842.8228,E,1,09,1.8,206.4,M,47.9,M,,*48
$GPGSA,A,3,02,03,15,17,18,21,22,23,31,,,,3.7,1.8,2.4*33
$GPGSV,3,1,12,02,35,305,00,03,58,292,36,06,01,103,00,15,63,060,38*71
$GPGSV,3,2,12,17,46,056,40,18,45,110,40,21,34,155,43,22,55,202,46*74
$GPGSV,3,3,12,23,29,049,33,26,06,053,00,27,11,324,00,31,18,288,31*72
$GPGLL,4924.5633,N,00842.8228,E,134044,A,A*47
$GPBOD,,T,,M,,*47
$PGRME,5.2,M,11.8,M,13.1,M*22
$PGRMZ,677,f,3*1D
$GPRTE,1,1,c,*37
$GPRMC,134046,A,4924.5635,N,00842.8224,E,0.0,191.3,010302,0.2,E,A*1B
$GPRMB,A,,,,,,,,,,,,A,A*0B
$GPGGA,134046,4924.5635,N,00842.8224,E,1,09,1.8,204.6,M,47.9,M,,*40
$GPGSA,A,3,02,03,15,17,18,21,22,23,31,,,,3.7,1.8,2.4*33
$GPGSV,3,1,12,02,35,305,00,03,58,292,36,06,01,103,00,15,63,060,38*71
$GPGSV,3,2,12,17,46,056,41,18,45,110,39,21,34,155,44,22,55,202,45*7F
$GPGSV,3,3,12,23,29,049,00,26,06,053,00,27,11,324,00,31,18,288,00*70
$GPGLL,4924.5635,N,00842.8224,E,134046,A,A*4F
$GPBOD,,T,,M,,*47
$PGRME,5.8,M,13.8,M,15.2,M*2F
$PGRMZ,671,f,3*1B
$GPRTE,1,1,c,*37
$GPRMC,134048,A,4924.5635,N,00842.8221,E,0.0,191.3,010302,0.2,E,A*10
$GPRMB,A,,,,,,,,,,,,A,A*0B
$GPGGA,134048,4924.5635,N,00842.8221,E,1,09,1.9,203.2,M,47.9,M,,*49
$GPGSA,A,3,02,03,15,17,18,21,22,23,31,,,,4.1,1.9,2.9*3E
$GPGSV,3,1,12,02,35,305,00,03,58,292,36,06,01,103,00,15,63,060,39*70
$GPGSV,3,2,12,17,46,056,40,18,45,110,39,21,34,155,44,22,55,202,45*7E
$GPGSV,3,3,12,23,29,049,00,26,06,053,00,27,11,324,00,31,18,288,00*70
$GPGLL,4924.5635,N,00842.8221,E,134048,A,A*44
$GPBOD,,T,,M,,*47
$PGRME,6.1,M,15.4,M,16.8,M*26
$PGRMZ,667,f,3*1C
$GPRTE,1,1,c,*37
$GPRMC,134050,A,4924.5634,N,00842.8225,E,0.0,191.3,010302,0.2,E,A*1C
$GPRMB,A,,,,,,,,,,,,A,A*0B
$GPGGA,134050,4924.5634,N,00842.8225,E,1,09,2.1,204.1,M,47.9,M,,*4A
$GPGSA,A,3,02,03,15,17,18,21,22,23,31,,,,4.6,2.1,3.5*3F
$GPGSV,3,1,12,02,35,305,00,03,58,292,36,06,01,103,00,15,63,060,39*70
$GPGSV,3,2,12,17,46,056,41,18,45,110,40,21,34,155,45,22,55,202,45*70
$GPGSV,3,3,12,23,29,049,00,26,06,053,00,27,11,324,00,31,19,288,00*71
$GPGLL,4924.5634,N,00842.8225,E,134050,A,A*48
$GPBOD,,T,,M,,*47
$PGRME,5.3,M,15.4,M,16.3,M*2C
$PGRMZ,670,f,3*1A
$GPRTE,1,1,c,*37
$GPRMC,134052,A,4924.5630,N,00842.8228,E,0.0,191.3,010302,0.2,E,A*17
$GPRMB,A,,,,,,,,,,,,A,A*0B
$GPGGA,134052,4924.5630,N,00842.8228,E,1,09,2.2,206.2,M,47.9,M,,*43
$GPGSA,A,3,02,03,15,17,18,21,22,23,31,,,,3.7,2.2,1.0*3D
$GPGSV,3,1,12,02,35,305,00,03,58,292,35,06,01,103,00,15,63,060,38*72
$GPGSV,3,2,12,17,46,056,41,18,45,110,40,21,34,155,46,22,55,202,46*70
$GPGSV,3,3,12,23,29,049,00,26,06,053,00,27,11,324,00,31,19,288,00*71
$GPGLL,4924.5630,N,00842.8228,E,134052,A,A*43
$GPBOD,,T,,M,,*47
$PGRME,5.8,M,18.4,M,19.3,M*25
$PGRMZ,677,f,3*1D
$GPRTE,1,1,c,*37
$GPRMC,134054,A,4924.5629,N,00842.8229,E,0.0,191.3,010302,0.2,E,A*18
$GPRMB,A,,,,,,,,,,,,A,A*0B
$GPGGA,134054,4924.5629,N,00842.8229,E,1,07,2.2,207.4,M,47.9,M,,*45
$GPGSA,A,3,02,03,15,17,18,21,22,,,,,,4.7,2.2,2.4*3E
$GPGSV,3,1,12,02,35,305,00,03,58,292,35,06,01,103,00,15,63,060,37*7D
$GPGSV,3,2,12,17,46,056,42,18,45,110,41,21,34,155,46,22,55,202,46*72
$GPGSV,3,3,12,23,29,049,00,26,06,053,00,27,11,324,00,31,19,288,00*71
$GPGLL,4924.5629,N,00842.8229,E,134054,A,A*4C
$GPBOD,,T,,M,,*47
$PGRME,6.5,M,20.1,M,21.2,M*2F
$PGRMZ,681,f,3*14
$GPRTE,1,1,c,*37
$GPRMC,134056,A,4924.5627,N,00842.8228,E,0.0,191.3,010302,0.2,E,A*15
$GPRMB,A,,,,,,,,,,,,A,A*0B
$GPGGA,134056,4924.5627,N,00842.8228,E,1,07,2.3,208.9,M,47.9,M,,*4B
$GPGSA,A,3,02,03,15,17,18,21,22,,,,,,2.8,2.3,1.0*31
$GPGSV,3,1,12,02,35,305,00,03,58,292,00,06,01,103,00,15,63,060,37*7B
$GPGSV,3,2,12,17,46,056,43,18,45,110,40,21,34,155,45,22,55,202,47*70
$GPGSV,3,3,12,23,29,049,00,26,06,053,00,27,11,324,00,31,19,288,00*71
$GPGLL,4924.5627,N,00842.8228,E,134056,A,A*41
$GPBOD,,T,,M,,*47
$PGRME,8.1,M,21.7,M,23.2,M*20
$PGRMZ,685,f,3*10
$GPRTE,1,1,c,*37
$GPRMC,134058,A,4924.5621,N,00842.8231,E,0.0,191.3,010302,0.2,E,A*15
$GPRMB,A,,,,,,,,,,,,A,A*0B
$GPGGA,134058,4924.5621,N,00842.8231,E,1,07,2.6,208.9,M,47.9,M,,*4E
$GPGSA,A,3,02,03,15,17,18,21,22,,,,,,2.8,2.6,1.0*34
$GPGSV,3,1,12,02,35,305,00,03,58,292,00,06,01,103,00,15,63,060,36*7A
$GPGSV,3,2,12,17,46,056,43,18,45,110,00,21,34,155,43,22,55,202,48*7D
$GPGSV,3,3,12,23,29,049,00,26,06,053,00,27,11,324,00,31,19,288,00*71
$GPGLL,4924.5621,N,00842.8231,E,134058,A,A*41
$GPBOD,,T,,M,,*47
$PGRME,8.7,M,21.7,M,23.5,M*21
$PGRMZ,685,f,3*10
$GPRTE,1,1,c,*37
$GPRMC,134100,A,4924.5620,N,00842.8230,E,0.0,191.3,010302,0.2,E,A*19
$GPRMB,A,,,,,,,,,,,,A,A*0B
$GPGGA,134100,4924.5620,N,00842.8230,E,1,06,5.6,208.6,M,47.9,M,,*4B
$GPGSA,A,3,03,15,17,18,21,22,,,,,,,13.1,5.6,11.1*38
$GPGSV,3,1,12,02,35,305,00,03,58,292,46,06,01,103,00,15,63,060,38*76
$GPGSV,3,2,12,17,46,056,43,18,45,110,31,21,34,155,42,22,55,202,48*7E
$GPGSV,3,3,12,23,29,049,00,26,06,053,00,27,11,324,00,31,19,288,00*71
$GPGLL,4924.5620,N,00842.8230,E,134100,A,A*4D
$GPBOD,,T,,M,,*47
$PGRME,6.6,M,20.2,M,21.3,M*2E
$PGRMZ,685,f,3*10
$GPRTE,1,1,c,*37
$GPRMC,134102,A,4924.5629,N,00842.8250,E,0.0,191.3,010302,0.2,E,A*14
$GPRMB,A,,,,,,,,,,,,A,A*0B
$GPGGA,134102,4924.5629,N,00842.8250,E,1,06,2.2,208.5,M,47.9,M,,*46
$GPGSA,A,3,03,15,17,18,21,22,,,,,,,2.4,2.2,1.0*3E
$GPGSV,3,1,12,02,36,304,00,03,58,292,47,06,01,103,00,15,63,060,42*78
$GPGSV,3,2,12,17,46,056,43,18,45,110,31,21,34,155,40,22,55,202,47*73
$GPGSV,3,3,12,23,29,049,00,26,06,053,00,27,11,324,00,31,19,288,00*71
$GPGLL,4924.5629,N,00842.8250,E,134102,A,A*40
$GPBOD,,T,,M,,*47
$PGRME,6.6,M,21.0,M,22.0,M*2D
$PGRMZ,684,f,3*11
$GPRTE,1,1,c,*37
$GPRMC,134104,A,4924.5634,N,00842.8263,E,0.0,191.3,010302,0.2,E,A*1E
$GPRMB,A,,,,,,,,,,,,A,A*0B
$GPGGA,134104,4924.5634,N,00842.8263,E,1,06,3.4,208.5,M,47.9,M,,*4B
$GPGSA,A,3,03,15,17,18,21,22,,,,,,,7.9,3.4,6.5*33
$GPGSV,3,1,12,02,36,304,00,03,58,292,46,06,01,103,00,15,63,060,44*7F
$GPGSV,3,2,12,17,46,056,43,18,45,110,34,21,34,155,00,22,55,202,47*72
$GPGSV,3,3,12,23,29,049,00,26,06,053,00,27,11,324,00,31,19,288,00*71
$GPGLL,4924.5634,N,00842.8263,E,134104,A,A*4A
$GPBOD,,T,,M,,*47
$PGRME,6.3,M,22.2,M,23.2,M*2A
$PGRMZ,684,f,3*11
$GPRTE,1,1,c,*37
$GPRMC,134106,A,4924.5637,N,00842.8270,E,0.9,191.3,010302,0.2,E,A*14
$GPRMB,A,,,,,,,,,,,,A,A*0B
$GPGGA,134106,4924.5637,N,00842.8270,E,1,08,4.8,208.8,M,47.9,M,,*40
$GPGSA,A,3,02,03,15,17,18,21,22,23,,,,,13.8,4.8,12.3*3C
$GPGSV,3,1,12,02,36,304,42,03,58,292,45,06,01,103,00,15,63,060,46*78
$GPGSV,3,2,12,17,46,056,43,18,45,110,36,21,34,155,00,22,55,202,45*72
$GPGSV,3,3,12,23,29,049,38,26,06,053,00,27,11,324,42,31,19,288,00*7C
$GPGLL,4924.5637,N,00842.8270,E,134106,A,A*49
$GPBOD,,T,,M,,*47
$PGRME,4.8,M,11.7,M,12.7,M*21
$PGRMZ,685,f,3*10
$GPRTE,1,1,c,*37
$GPRMC,134108,A,4924.5639,N,00842.8280,E,1.1,191.3,010302,0.2,E,A*12
$GPRMB,A,,,,,,,,,,,,A,A*0B
$GPGGA,134108,4924.5639,N,00842.8280,E,1,08,5.5,208.7,M,47.9,M,,*4C
$GPGSA,A,3,02,03,15,17,18,21,22,23,,,,,16.6,5.5,15.1*3E
$GPGSV,3,1,12,02,36,304,41,03,58,292,43,06,01,103,00,15,63,060,46*7D
$GPGSV,3,2,12,17,46,056,43,18,45,110,39,21,34,155,40,22,55,202,43*7F
$GPGSV,3,3,12,23,29,049,37,26,06,053,00,27,11,324,00,31,19,288,00*75
$GPGLL,4924.5639,N,00842.8280,E,134108,A,A*46
$GPBOD,,T,,M,,*47
$PGRME,4.9,M,12.6,M,13.5,M*21
$PGRMZ,685,f,3*10
$GPRTE,1,1,c,*37
$GPRMC,134110,A,4924.5640,N,00842.8290,E,1.2,191.3,010302,0.2,E,A*17
$GPRMB,A,,,,,,,,,,,,A,A*0B
$GPGGA,134110,4924.5640,N,00842.8290,E,1,08,6.4,208.7,M,47.9,M,,*48
$GPGSA,A,3,02,03,15,17,18,21,22,23,,,,,19.0,6.4,17.5*33
$GPGSV,3,1,12,02,36,304,38,03,58,292,40,06,01,103,00,15,63,060,48*7E
$GPGSV,3,2,12,17,46,056,43,18,45,110,40,21,34,155,40,22,55,202,43*71
$GPGSV,3,3,12,23,29,049,00,26,06,053,00,27,11,324,00,31,19,288,00*71
$GPGLL,4924.5640,N,00842.8290,E,134110,A,A*40
$GPBOD,,T,,M,,*47
$PGRME,4.4,M,12.3,M,13.1,M*2D
$PGRMZ,685,f,3*10
$GPRTE,1,1,c,*37
$GPRMC,134112,A,4924.5641,N,00842.8301,E,1.2,191.3,010302,0.2,E,A*1D
$GPRMB,A,,,,,,,,,,,,A,A*0B
$GPGGA,134112,4924.5641,N,00842.8301,E,1,08,7.3,208.8,M,47.9,M,,*4B
$GPGSA,A,3,02,03,15,17,18,21,22,23,,,,,20.1,7.3,18.2*36
$GPGSV,3,1,12,02,36,304,00,03,58,292,41,06,01,103,00,15,63,060,45*79
$GPGSV,3,2,12,17,46,056,40,18,45,110,43,21,34,155,00,22,55,202,41*77
$GPGSV,3,3,12,23,29,049,00,26,06,053,00,27,11,324,00,31,19,288,00*71
$GPGLL,4924.5641,N,00842.8301,E,134112,A,A*4A
$GPBOD,,T,,M,,*47
$PGRME,4.8,M,12.3,M,13.2,M*22
$PGRMZ,685,f,3*10
$GPRTE,1,1,c,*37
$GPRMC,134114,A,4924.5642,N,00842.8314,E,1.3,191.3,010302,0.2,E,A*1D
$GPRMB,A,,,,,,,,,,,,A,A*0B
$GPGGA,134114,4924.5642,N,00842.8314,E,1,08,9.4,208.7,M,47.9,M,,*4C
$GPGSA,A,3,02,03,15,17,18,21,22,23,,,,,24.8,9.4,22.4*3D
$GPGSV,3,1,12,02,36,304,00,03,58,292,39,06,01,103,00,15,63,060,47*74
$GPGSV,3,2,12,17,46,056,44,18,45,110,45,21,34,155,00,22,55,202,45*71
$GPGSV,3,3,12,23,29,049,42,26,06,053,00,27,11,324,00,31,19,288,00*77
$GPGLL,4924.5642,N,00842.8314,E,134114,A,A*4B
$GPBOD,,T,,M,,*47
$PGRME,5.6,M,13.8,M,15.0,M*23
$PGRMZ,685,f,3*10
$GPRTE,1,1,c,*37
$GPRMC,134116,A,4924.5644,N,00842.8327,E,1.3,78.0,010302,0.2,E,A*2C
$GPRMB,A,,,,,,,,,,,,A,A*0B
$GPGGA,134116,4924.5644,N,00842.8327,E,1,08,9.6,208.5,M,47.9,M,,*48
$GPGSA,A,3,02,03,15,17,18,21,22,23,,,,,25.4,9.6,23.1*36
$GPGSV,3,1,12,02,36,304,00,03,58,292,42,06,00,104,00,15,63,060,47*7E
$GPGSV,3,2,12,17,46,056,44,18,45,110,44,21,34,155,00,22,55,202,47*72
$GPGSV,3,3,12,23,29,049,43,26,06,053,00,27,11,324,34,31,19,288,00*71
$GPGLL,4924.5644,N,00842.8327,E,134116,A,A*4F
$GPBOD,,T,,M,,*47
$PGRME,5.6,M,13.9,M,15.0,M*22
$PGRMZ,684,f,3*11
$GPRTE,1,1,c,*37
$GPRMC,134118,A,4924.5648,N,00842.8357,E,1.8,77.5,010302,0.2,E,A*28
$GPRMB,A,,,,,,,,,,,,A,A*0B
$GPGGA,134118,4924.5648,N,00842.8357,E,1,08,1.7,208.8,M,47.9,M,,*49
$GPGSA,A,3,02,03,15,17,18,21,22,23,,,,,4.7,1.7,4.4*3F
$GPGSV,3,1,12,02,36,304,36,03,58,292,47,06,00,104,00,15,63,060,47*7E
$GPGSV,3,2,12,17,46,056,45,18,46,109,44,21,34,155,00,22,55,202,47*78
$GPGSV,3,3,12,23,29,049,43,26,06,053,00,27,11,324,33,31,19,288,00*76
$GPGLL,4924.5648,N,00842.8357,E,134118,A,A*4A
$GPBOD,,T,,M,,*47
$PGRME,4.9,M,12.0,M,13.0,M*22
$PGRMZ,685,f,3*10
$GPRTE,1,1,c,*37
$GPRMC,134120,A,4924.5655,N,00842.8387,E,2.1,75.1,010302,0.2,E,A*2E
$GPRMB,A,,,,,,,,,,,,A,A*0B
$GPGGA,134120,4924.5655,N,00842.8387,E,1,08,1.7,209.0,M,47.9,M,,*4A
$GPGSA,A,3,02,03,15,17,18,21,22,23,,,,,2.7,1.7,1.3*3B
$GPGSV,3,1,12,02,36,304,35,03,58,292,47,06,00,104,00,15,63,060,46*7C
$GPGSV,3,2,12,17,46,056,44,18,46,109,43,21,34,155,40,22,55,202,48*75
$GPGSV,3,3,12,23,29,049,43,26,06,053,00,27,11,324,00,31,19,288,00*76
$GPGLL,4924.5655,N,00842.8387,E,134120,A,A*40
$GPBOD,,T,,M,,*47
$PGRME,4.0,M,9.9,M,10.7,M*1C
$PGRMZ,686,f,3*13
$GPRTE,1,1,c,*37
$GPRMC,134122,A,4924.5661,N,00842.8416,E,2.4,73.0,010302,0.2,E,A*26
$GPRMB,A,,,,,,,,,,,,A,A*0B
$GPGGA,134122,4924.5661,N,00842.8416,E,1,08,1.8,209.1,M,47.9,M,,*4E
$GPGSA,A,3,02,03,15,17,18,21,22,23,,,,,3.2,1.8,1.9*3A
$GPGSV,3,1,12,02,36,304,36,03,58,292,48,06,00,104,00,15,63,060,44*72
$GPGSV,3,2,12,17,46,056,45,18,46,109,43,21,34,155,43,22,55,202,48*77
$GPGSV,3,3,12,23,29,049,43,26,06,053,00,27,11,324,34,31,19,288,00*71
$GPGLL,4924.5661,N,00842.8416,E,134122,A,A*4A
$GPBOD,,T,,M,,*47
$PGRME,4.0,M,9.9,M,10.7,M*1C
$PGRMZ,686,f,3*13
$GPRTE,1,1,c,*37
$GPRMC,134124,A,4924.5668,N,00842.8442,E,2.5,71.0,010302,0.2,E,A*2B
$GPRMB,A,,,,,,,,,,,,A,A*0B
$GPGGA,134124,4924.5668,N,00842.8442,E,1,08,1.5,209.0,M,47.9,M,,*4C
$GPGSA,A,3,02,03,15,17,18,21,22,23,,,,,3.7,1.5,2.6*3E
$GPGSV,3,1,12,02,36,304,38,03,58,292,48,06,00,104,00,15,63,060,46*7E
$GPGSV,3,2,12,17,46,056,46,18,46,109,44,21,34,155,45,22,55,202,48*75
$GPGSV,3,3,12,23,29,049,43,26,06,053,00,27,11,324,33,31,19,288,00*76
$GPGLL,4924.5668,N,00842.8442,E,134124,A,A*44
$GPBOD,,T,,M,,*47
$PGRME,4.0,M,9.9,M,10.7,M*1C
$PGRMZ,686,f,3*13
$GPRTE,1,1,c,*37
$GPRMC,134126,A,4924.5673,N,00842.8469,E,2.6,71.6,010302,0.2,E,A*2F
$GPRMB,A,,,,,,,,,,,,A,A*0B
$GPGGA,134126,4924.5673,N,00842.8469,E,1,08,1.6,209.1,M,47.9,M,,*4F
$GPGSA,A,3,02,03,15,17,18,21,22,23,,,,,2.7,1.6,1.8*31
$GPGSV,3,1,12,02,36,304,37,03,58,292,47,06,00,104,00,15,63,060,46*7E
$GPGSV,3,2,12,17,46,056,46,18,46,109,44,21,34,155,44,22,55,202,48*74
$GPGSV,3,3,12,23,29,049,42,26,06,053,00,27,11,324,00,31,19,288,00*77
$GPGLL,4924.5673,N,00842.8469,E,134126,A,A*45
$GPBOD,,T,,M,,*47
$PGRME,4.1,M,10.2,M,11.0,M*28
$PGRMZ,686,f,3*13
$GPRTE,1,1,c,*37
$GPRMC,134128,A,4924.5678,N,00842.8497,E,2.7,71.3,010302,0.2,E,A*2F
$GPRMB,A,,,,,,,,,,,,A,A*0B
$GPGGA,134128,4924.5678,N,00842.8497,E,1,08,2.4,209.4,M,47.9,M,,*4F
$GPGSA,A,3,02,03,15,17,18,21,22,23,,,,,3.8,2.4,1.6*30
$GPGSV,3,1,12,02,36,304,36,03,58,292,46,06,00,104,00,15,63,060,47*7F
$GPGSV,3,2,12,17,46,056,47,18,46,109,43,21,34,155,45,22,55,202,46*7D
$GPGSV,3,3,12,23,29,049,42,26,06,053,00,27,11,324,00,31,19,288,00*77
$GPGLL,4924.5678,N,00842.8497,E,134128,A,A*41
$GPBOD,,T,,M,,*47
$PGRME,4.0,M,9.9,M,10.7,M*1C
$PGRMZ,687,f,3*12
$GPRTE,1,1,c,*37
$GPRMC,134130,A,4924.5684,N,00842.8523,E,2.7,71.1,010302,0.2,E,A*29
$GPRMB,A,,,,,,,,,,,,A,A*0B
$GPGGA,134130,4924.5684,N,00842.8523,E,1,08,2.4,209.4,M,47.9,M,,*4B
$GPGSA,A,3,02,03,15,17,18,21,22,23,,,,,4.3,2.4,2.3*3A
$GPGSV,3,1,12,02,36,304,35,03,58,292,47,06,00,104,00,15,63,060,47*7D
$GPGSV,3,2,12,17,46,056,47,18,46,109,45,21,34,155,43,22,55,202,44*7F
$GPGSV,3,3,12,23,29,049,41,26,06,053,00,27,11,324,00,31,19,288,00*74
$GPGLL,4924.5684,N,00842.8523,E,134130,A,A*45
$GPBOD,,T,,M,,*47
$PGRME,4.2,M,10.2,M,11.0,M*2B
$PGRMZ,687,f,3*12
$GPRTE,1,1,c,*37
$GPRMC,134132,A,4924.5690,N,00842.8550,E,2.8,70.7,010302,0.2,E,A*22
$GPRMB,A,,,,,,,,,,,,A,A*0B
$GPGGA,134132,4924.5690,N,00842.8550,E,1,08,2.4,209.1,M,47.9,M,,*4D
$GPGSA,A,3,02,03,15,17,18,21,22,23,,,,,4.8,2.4,3.1*32
$GPGSV,3,1,12,02,36,304,34,03,58,292,47,06,00,104,00,15,63,060,48*73
$GPGSV,3,2,12,17,46,056,47,18,46,109,46,21,34,155,42,22,55,202,44*7D
$GPGSV,3,3,12,23,29,049,42,26,06,053,00,27,11,324,00,31,19,288,00*77
$GPGLL,4924.5690,N,00842.8550,E,134132,A,A*46
$GPBOD,,T,,M,,*47
$PGRME,4.3,M,10.5,M,11.3,M*2E
$PGRMZ,686,f,3*13
$GPRTE,1,1,c,*37
$GPRMC,134134,A,4924.5695,N,00842.8576,E,2.8,70.7,010302,0.2,E,A*25
$GPRMB,A,,,,,,,,,,,,A,A*0B
$GPGGA,134134,4924.5695,N,00842.8576,E,1,08,1.9,208.9,M,47.9,M,,*4D
$GPGSA,A,3,02,03,15,17,18,21,22,23,,,,,5.1,1.9,3.6*33
$GPGSV,3,1,12,02,36,304,00,03,58,292,48,06,00,104,00,15,63,060,48*7B
$GPGSV,3,2,12,17,46,056,47,18,46,109,47,21,34,155,40,22,55,202,45*7F
$GPGSV,3,3,12,23,29,049,41,26,06,053,00,27,11,324,00,31,19,288,00*74
$GPGLL,4924.5695,N,00842.8576,E,134134,A,A*41
$GPBOD,,T,,M,,*47
$PGRME,4.6,M,13.0,M,13.8,M*24
$PGRMZ,685,f,3*10
$GPRTE,1,1,c,*37
$GPRMC,134136,A,4924.5700,N,00842.8602,E,2.8,71.2,010302,0.2,E,A*2E
$GPRMB,A,,,,,,,,,,,,A,A*0B
$GPGGA,134136,4924.5700,N,00842.8602,E,1,08,1.9,208.8,M,47.9,M,,*43
$GPGSA,A,3,02,03,15,17,18,21,22,23,,,,,5.1,1.9,3.6*33
$GPGSV,3,1,12,02,36,304,00,03,58,292,48,06,00,104,00,15,63,060,48*7B
$GPGSV,3,2,12,17,46,056,46,18,46,109,48,21,34,155,39,22,55,202,46*7C
$GPGSV,3,3,12,23,29,049,41,26,06,053,00,27,11,324,00,31,19,288,00*74
$GPGLL,4924.5700,N,00842.8602,E,134136,A,A*4E
$GPBOD,,T,,M,,*47
$PGRME,4.8,M,12.7,M,13.7,M*23
$PGRMZ,685,f,3*10
$GPRTE,1,1,c,*37
$GPRMC,134138,A,4924.5705,N,00842.8629,E,2.9,71.7,010302,0.2,E,A*28
$GPRMB,A,,,,,,,,,,,,A,A*0B
$GPGGA,134138,4924.5705,N,00842.8629,E,1,09,1.9,209.1,M,47.9,M,,*48
$GPGSA,A,3,02,03,15,17,18,21,22,23,31,,,,5.1,1.9,3.6*31
$GPGSV,3,1,12,02,36,304,00,03,58,292,49,06,00,104,00,15,63,060,48*7A
$GPGSV,3,2,12,17,46,056,46,18,46,109,47,21,34,155,00,22,55,202,47*78
$GPGSV,3,3,12,23,29,049,39,26,06,053,00,27,11,324,00,31,19,288,00*7B
$GPGLL,4924.5705,N,00842.8629,E,134138,A,A*4C
$GPBOD,,T,,M,,*47
$PGRME,5.0,M,12.0,M,13.1,M*2B
$PGRMZ,686,f,3*13
$GPRTE,1,1,c,*37
$GPRMC,134140,A,4924.5711,N,00842.8656,E,2.9,70.9,010302,0.2,E,A*25
$GPRMB,A,,,,,,,,,,,,A,A*0B
$GPGGA,134140,4924.5711,N,00842.8656,E,1,09,2.0,209.3,M,47.9,M,,*42
$GPGSA,A,3,02,03,15,17,18,21,22,23,31,,,,2.5,2.0,1.0*3C
$GPGSV,3,1,12,02,36,304,33,03,58,292,49,06,00,104,00,15,63,060,48*7A
$GPGSV,3,2,12,17,46,056,46,18,46,109,46,21,34,155,00,22,55,202,47*79
$GPGSV,3,3,12,23,29,049,37,26,06,053,00,27,11,324,00,31,19,288,31*77
$GPGLL,4924.5711,N,00842.8656,E,134140,A,A*4E
$GPBOD,,T,,M,,*47
$PGRME,4.8,M,10.5,M,11.7,M*21
$PGRMZ,687,f,3*12
$GPRTE,1,1,c,*37
$GPRMC,134142,A,4924.5715,N,00842.8682,E,2.9,71.8,010302,0.2,E,A*2A
$GPRMB,A,,,,,,,,,,,,A,A*0B
$GPGGA,134142,4924.5715,N,00842.8682,E,1,09,1.9,209.2,M,47.9,M,,*46
$GPGSA,A,3,02,03,15,17,18,21,22,23,31,,,,3.1,1.9,1.7*34
$GPGSV,3,1,12,02,36,304,32,03,58,292,49,06,00,104,00,15,63,060,48*7B
$GPGSV,3,2,12,17,46,056,44,18,46,109,44,21,34,155,00,22,55,202,48*76
$GPGSV,3,3,12,23,29,049,36,26,06,053,00,27,11,324,00,31,19,288,00*74
$GPGLL,4924.5715,N,00842.8682,E,134142,A,A*41
$GPBOD,,T,,M,,*47
$PGRME,5.0,M,12.4,M,13.5,M*2B
$PGRMZ,686,f,3*13
$GPRTE,1,1,c,*37
$GPRMC,134144,A,4924.5721,N,00842.8709,E,3.0,71.2,010302,0.2,E,A*2B
$GPRMB,A,,,,,,,,,,,,A,A*0B
$GPGGA,134144,4924.5721,N,00842.8709,E,1,09,2.1,209.0,M,47.9,M,,*4C
$GPGSA,A,3,02,03,15,17,18,21,22,23,31,,,,2.7,2.1,1.0*3F
$GPGSV,3,1,12,02,36,304,00,03,58,292,50,06,00,104,00,15,63,060,48*72
$GPGSV,3,2,12,17,46,056,42,18,46,109,44,21,34,155,00,22,55,202,47*7F
$GPGSV,3,3,12,23,29,049,35,26,06,053,00,27,11,324,00,31,19,288,00*77
$GPGLL,4924.5721,N,00842.8709,E,134144,A,A*42
$GPBOD,,T,,M,,*47
$PGRME,5.1,M,13.8,M,14.9,M*2C
$PGRMZ,686,f,3*13
$GPRTE,1,1,c,*37
$GPRMC,134146,A,4924.5726,N,00842.8735,E,2.9,72.1,010302,0.2,E,A*29
$GPRMB,A,,,,,,,,,,,,A,A*0B
$GPGGA,134146,4924.5726,N,00842.8735,E,1,08,2.3,208.6,M,47.9,M,,*42
$GPGSA,A,3,02,03,15,17,18,22,23,31,,,,,2.5,2.3,1.0*3C
$GPGSV,3,1,12,02,36,304,00,03,58,292,49,06,00,104,00,15,63,060,48*7A
$GPGSV,3,2,12,17,46,056,43,18,46,109,44,21,34,155,00,22,55,202,46*7F
$GPGSV,3,3,12,23,29,049,35,26,06,053,00,27,11,324,00,31,19,288,00*77
$GPGLL,4924.5726,N,00842.8735,E,134146,A,A*48
$GPBOD,,T,,M,,*47
$PGRME,5.3,M,15.1,M,16.2,M*28
$PGRMZ,684,f,3*11
$GPRTE,1,1,c,*37
$GPRMC,134148,A,4924.5731,N,00842.8761,E,2.9,72.1,010302,0.2,E,A*20
$GPRMB,A,,,,,,,,,,,,A,A*0B
$GPGGA,134148,4924.5731,N,00842.8761,E,1,08,4.0,209.0,M,47.9,M,,*49
$GPGSA,A,3,02,03,15,17,18,22,23,31,,,,,10.1,4.0,8.6*01
$GPGSV,3,1,12,02,36,304,38,03,58,292,49,06,00,104,00,15,63,060,48*71
$GPGSV,3,2,12,17,46,056,42,18,46,109,45,21,34,155,00,22,55,202,45*7C
$GPGSV,3,3,12,23,29,049,00,26,06,053,00,27,11,324,00,31,19,288,00*71
$GPGLL,4924.5731,N,00842.8761,E,134148,A,A*41
$GPBOD,,T,,M,,*47
$PGRME,4.9,M,14.8,M,15.6,M*2C
$PGRMZ,686,f,3*13
$GPRTE,1,1,c,*37
$GPRMC,134150,A,4924.5736,N,00842.8787,E,2.9,71.3,010302,0.2,E,A*27
$GPRMB,A,,,,,,,,,,,,A,A*0B
$GPGGA,134150,4924.5736,N,00842.8787,E,1,07,5.9,209.3,M,47.9,M,,*4B
$GPGSA,A,3,02,03,15,17,18,22,23,,,,,,14.4,5.9,12.5*32
$GPGSV,3,1,12,02,36,304,36,03,58,292,49,06,00,104,00,15,62,060,48*7E
$GPGSV,3,2,12,17,46,056,43,18,46,109,46,21,34,155,00,22,55,202,45*7E
$GPGSV,3,3,12,23,29,049,37,26,06,053,00,27,11,324,00,31,19,288,00*75
$GPGLL,4924.5736,N,00842.8787,E,134150,A,A*47
$GPBOD,,T,,M,,*47
$PGRME,5.3,M,14.6,M,15.7,M*28
$PGRMZ,687,f,3*12
$GPRTE,1,1,c,*37
$GPRMC,134152,A,4924.5740,N,00842.8812,E,2.9,71.4,010302,0.2,E,A*20
$GPRMB,A,,,,,,,,,,,,A,A*0B
$GPGGA,134152,4924.5740,N,00842.8812,E,1,07,2.2,209.4,M,47.9,M,,*40
$GPGSA,A,3,02,03,15,17,18,22,23,,,,,,7.2,2.2,1.8*35
$GPGSV,3,1,12,02,36,304,35,03,58,292,48,06,00,104,00,15,62,060,47*73
$GPGSV,3,2,12,17,46,056,44,18,46,109,45,21,34,155,00,22,55,202,46*79
$GPGSV,3,3,12,23,29,049,36,26,06,053,00,27,11,324,00,31,19,288,00*74
$GPGLL,4924.5740,N,00842.8812,E,134152,A,A*47
$GPBOD,,T,,M,,*47
$PGRME,5.4,M,15.8,M,16.8,M*2C
$PGRMZ,687,f,3*12
$GPRTE,1,1,c,*37
$GPRMC,134154,A,4924.5745,N,00842.8837,E,2.9,81.3,010302,0.2,E,A*2C
$GPRMB,A,,,,,,,,,,,,A,A*0B
$GPGGA,134154,4924.5745,N,00842.8837,E,1,07,3.0,209.5,M,47.9,M,,*46
$GPGSA,A,3,02,03,15,17,18,22,23,,,,,,9.6,3.0,4.5*34
$GPGSV,3,1,12,02,36,304,36,03,58,292,48,06,00,104,00,15,62,060,47*70
$GPGSV,3,2,12,17,46,056,43,18,46,109,44,21,34,155,00,22,55,202,47*7E
$GPGSV,3,3,12,23,29,049,00,26,06,053,00,27,11,324,00,31,19,288,00*71
$GPGLL,4924.5745,N,00842.8837,E,134154,A,A*43
$GPBOD,,T,,M,,*47
$PGRME,4.9,M,14.8,M,15.6,M*2C
$PGRMZ,687,f,3*12
$GPRTE,1,1,c,*37
$GPRMC,134156,A,4924.5749,N,00842.8862,E,2.9,80.3,010302,0.2,E,A*23
$GPRMB,A,,,,,,,,,,,,A,A*0B
$GPGGA,134156,4924.5749,N,00842.8862,E,1,07,3.4,209.2,M,47.9,M,,*4B
$GPGSA,A,3,02,03,15,17,18,22,23,,,,,,10.4,3.4,6.8*05
$GPGSV,3,1,12,02,36,304,39,03,58,292,48,06,00,104,00,15,62,060,48*70
$GPGSV,3,2,12,17,46,056,43,18,46,109,43,21,34,155,00,22,55,202,47*79
$GPGSV,3,3,12,23,29,049,39,26,06,053,00,27,11,324,00,31,19,288,00*7B
$GPGLL,4924.5749,N,00842.8862,E,134156,A,A*4D
$GPBOD,,T,,M,,*47
$PGRME,4.8,M,11.8,M,12.7,M*2E
$PGRMZ,686,f,3*13
$GPRTE,1,1,c,*37
$GPRMC,134158,A,4924.5752,N,00842.8888,E,2.8,78.7,010302,0.2,E,A*21
$GPRMB,A,,,,,,,,,,,,A,A*0B
$GPGGA,134158,4924.5752,N,00842.8888,E,1,07,3.4,209.0,M,47.9,M,,*49
$GPGSA,A,3,02,03,15,17,18,22,23,,,,,,10.4,3.4,6.8*05
$GPGSV,3,1,12,02,36,304,40,03,58,292,46,06,00,104,00,15,62,060,48*70
$GPGSV,3,2,12,17,45,056,43,18,46,109,42,21,34,155,00,22,55,202,46*7A
$GPGSV,3,3,12,23,29,049,41,26,06,053,00,27,11,324,00,31,19,288,00*74
$GPGLL,4924.5752,N,00842.8888,E,134158,A,A*4D
$GPBOD,,T,,M,,*47
$PGRME,4.8,M,11.8,M,12.7,M*2E
$PGRMZ,686,f,3*13
$GPRTE,1,1,c,*37
$GPRMC,134200,A,4924.5756,N,00842.8914,E,2.9,78.2,010302,0.2,E,A*2B
$GPRMB,A,,,,,,,,,,,,A,A*0B
$GPGGA,134200,4924.5756,N,00842.8914,E,1,07,3.2,208.9,M,47.9,M,,*49
$GPGSA,A,3,02,03,15,17,18,22,23,,,,,,9.3,3.2,7.0*35
$GPGSV,3,1,12,02,36,304,41,03,58,292,46,06,00,104,00,15,62,060,48*71
$GPGSV,3,2,12,17,45,056,44,18,46,109,46,21,34,155,00,22,55,202,45*7A
$GPGSV,3,3,12,23,29,049,41,26,06,053,00,27,11,324,00,31,19,288,00*74
$GPGLL,4924.5756,N,00842.8914,E,134200,A,A*43
$GPBOD,,T,,M,,*47
$PGRME,4.8,M,11.8,M,12.7,M*2E
$PGRMZ,685,f,3*10
$GPRTE,1,1,c,*37
$GPRMC,134202,A,4924.5761,N,00842.8936,E,2.8,76.4,010302,0.2,E,A*24
$GPRMB,A,,,,,,,,,,,,A,A*0B
$GPGGA,134202,4924.5761,N,00842.8936,E,1,07,2.2,208.7,M,47.9,M,,*40
$GPGSA,A,3,02,03,15,17,18,22,23,,,,,,4.6,2.2,1.0*3A
$GPGSV,3,1,12,02,36,304,41,03,58,292,47,06,00,104,00,15,62,060,49*71
$GPGSV,3,2,12,17,45,056,45,18,46,109,46,21,34,155,00,22,55,202,45*7B
$GPGSV,3,3,12,23,29,049,42,26,06,053,00,27,11,324,00,31,19,288,00*77
$GPGLL,4924.5761,N,00842.8936,E,134202,A,A*45
$GPBOD,,T,,M,,*47
$PGRME,4.8,M,11.8,M,12.7,M*2E
$PGRMZ,685,f,3*10
$GPRTE,1,1,c,*37
$GPRMC,134204,A,4924.5766,N,00842.8961,E,2.8,76.0,010302,0.2,E,A*23
$GPRMB,A,,,,,,,,,,,,A,A*0B
$GPGGA,134204,4924.5766,N,00842.8961,E,1,07,1.9,208.5,M,47.9,M,,*49
$GPGSA,A,3,02,03,15,17,18,22,23,,,,,,5.0,1.9,1.7*32
$GPGSV,3,1,12,02,36,304,39,03,58,292,47,06,00,104,00,15,62,060,49*7E
$GPGSV,3,2,12,17,45,056,46,18,46,109,47,21,34,155,00,22,55,202,46*7A
$GPGSV,3,3,12,23,29,049,42,26,06,053,00,27,11,324,00,31,19,288,00*77
$GPGLL,4924.5766,N,00842.8961,E,134204,A,A*46
$GPBOD,,T,,M,,*47
$PGRME,4.9,M,12.0,M,13.0,M*22
$PGRMZ,684,f,3*11
$GPRTE,1,1,c,*37
$GPRMC,134206,A,4924.5770,N,00842.8986,E,2.8,75.3,010302,0.2,E,A*2F
$GPRMB,A,,,,,,,,,,,,A,A*0B
$GPGGA,134206,4924.5770,N,00842.8986,E,1,07,1.7,208.5,M,47.9,M,,*4B
$GPGSA,A,3,02,03,15,17,18,22,23,,,,,,4.7,1.7,2.6*38
$GPGSV,3,1,12,02,36,304,39,03,58,292,48,06,00,104,00,15,62,060,49*71
$GPGSV,3,2,12,17,45,056,46,18,46,109,48,21,34,155,00,22,55,202,45*76
$GPGSV,3,3,12,23,29,049,42,26,06,053,00,27,11,324,00,31,19,288,00*77
$GPGLL,4924.5770,N,00842.8986,E,134206,A,A*4A
$GPBOD,,T,,M,,*47
$PGRME,4.8,M,11.8,M,12.7,M*2E
$PGRMZ,684,f,3*11
$GPRTE,1,1,c,*37
$GPRMC,134208,A,4924.5774,N,00842.9012,E,2.8,75.4,010302,0.2,E,A*27
$GPRMB,A,,,,,,,,,,,,A,A*0B
$GPGGA,134208,4924.5774,N,00842.9012,E,1,07,1.7,208.6,M,47.9,M,,*47
$GPGSA,A,3,02,03,15,17,18,22,23,,,,,,4.7,1.7,2.6*38
$GPGSV,3,1,12,02,36,304,38,03,58,292,46,06,00,104,00,15,62,060,48*7F
$GPGSV,3,2,12,17,45,056,46,18,46,109,46,21,34,155,00,22,55,202,46*7B
$GPGSV,3,3,12,23,29,049,40,26,06,053,00,27,11,324,00,31,19,288,00*75
$GPGLL,4924.5774,N,00842.9012,E,134208,A,A*45
$GPBOD,,T,,M,,*47
$PGRME,4.9,M,12.0,M,13.0,M*22
$PGRMZ,684,f,3*11
$GPRTE,1,1,c,*37
$GPRMC,134210,A,4924.5778,N,00842.9037,E,2.9,75.0,010302,0.2,E,A*20
$GPRMB,A,,,,,,,,,,,,A,A*0B
$GPGGA,134210,4924.5778,N,00842.9037,E,1,07,1.8,208.3,M,47.9,M,,*4F
$GPGSA,A,3,02,03,15,17,18,22,23,,,,,,5.1,1.8,3.2*35
$GPGSV,3,1,12,02,36,304,37,03,58,292,46,06,00,104,00,15,62,060,48*70
$GPGSV,3,2,12,17,45,056,46,18,46,109,44,21,34,155,00,22,55,202,47*78
$GPGSV,3,3,12,23,29,049,40,26,06,053,00,27,11,324,00,31,19,288,00*75
$GPGLL,4924.5778,N,00842.9037,E,134210,A,A*47
$GPBOD,,T,,M,,*47
$PGRME,4.9,M,12.0,M,13.0,M*22
$PGRMZ,683,f,3*16
$GPRTE,1,1,c,*37
$GPRMC,134212,A,4924.5783,N,00842.9063,E,2.8,72.3,010302,0.2,E,A*22
$GPRMB,A,,,,,,,,,,,,A,A*0B
$GPGGA,134212,4924.5783,N,00842.9063,E,1,07,3.7,208.3,M,47.9,M,,*45
$GPGSA,A,3,02,03,15,17,18,22,23,,,,,,9.7,3.7,7.6*32
$GPGSV,3,1,12,02,36,304,36,03,58,292,46,06,00,104,00,15,62,060,48*71
$GPGSV,3,2,12,17,45,056,47,18,46,109,41,21,34,155,00,22,55,202,48*73
$GPGSV,3,3,12,23,29,049,40,26,06,053,00,27,11,324,00,31,19,288,00*75
$GPGLL,4924.5783,N,00842.9063,E,134212,A,A*40
$GPBOD,,T,,M,,*47
$PGRME,5.0,M,12.1,M,13.0,M*2B
$PGRMZ,683,f,3*16
$GPRTE,1,1,c,*37
$GPRMC,134214,A,4924.5788,N,00842.9087,E,2.8,71.8,010302,0.2,E,A*2D
$GPRMB,A,,,,,,,,,,,,A,A*0B
$GPGGA,134214,4924.5788,N,00842.9087,E,1,07,5.4,208.1,M,47.9,M,,*45
$GPGSA,A,3,02,03,15,17,18,22,23,,,,,,16.1,5.4,14.1*3A
$GPGSV,3,1,12,02,36,304,35,03,58,292,45,06,00,104,00,15,62,060,48*71
$GPGSV,3,2,12,17,45,056,47,18,46,109,41,21,35,155,00,22,55,202,46*7C
$GPGSV,3,3,12,23,29,049,39,26,06,053,00,27,11,324,00,31,19,288,00*7B
$GPGLL,4924.5788,N,00842.9087,E,134214,A,A*47
$GPBOD,,T,,M,,*47
$PGRME,5.2,M,13.7,M,14.7,M*2E
$PGRMZ,683,f,3*16
$GPRTE,1,1,c,*37
$GPRMC,134216,A,4924.5792,N,00842.9108,E,2.7,71.7,010302,0.2,E,A*22
$GPRMB,A,,,,,,,,,,,,A,A*0B
$GPGGA,134216,4924.5792,N,00842.9108,E,1,07,2.1,208.4,M,47.9,M,,*4D
$GPGSA,A,3,02,03,15,17,18,22,23,,,,,,8.6,2.1,8.4*38
$GPGSV,3,1,12,02,36,304,00,03,58,292,44,06,00,104,00,15,62,060,48*76
$GPGSV,3,2,12,17,45,056,47,18,46,109,43,21,35,155,00,22,54,201,46*7C
$GPGSV,3,3,12,23,29,049,38,26,06,053,00,27,11,324,00,31,19,288,00*7A
$GPGLL,4924.5792,N,00842.9108,E,134216,A,A*48
$GPBOD,,T,,M,,*47
$PGRME,5.7,M,14.6,M,16.1,M*29
$PGRMZ,684,f,3*11
$GPRTE,1,1,c,*37
$GPRMC,134218,A,4924.5798,N,00842.9127,E,2.7,70.7,010302,0.2,E,A*2A
$GPRMB,A,,,,,,,,,,,,A,A*0B
$GPGGA,134218,4924.5798,N,00842.9127,E,1,07,2.6,208.4,M,47.9,M,,*43
$GPGSA,A,3,02,03,15,17,18,22,23,,,,,,7.2,2.6,1.8*31
$GPGSV,3,1,12,02,36,304,37,03,58,292,43,06,00,104,00,15,62,060,49*74
$GPGSV,3,2,12,17,45,056,46,18,46,109,44,21,35,155,00,22,54,201,46*7A
$GPGSV,3,3,12,23,29,049,40,26,06,053,00,27,11,324,00,31,19,288,00*75
$GPGLL,4924.5798,N,00842.9127,E,134218,A,A*41
$GPBOD,,T,,M,,*47
$PGRME,4.8,M,11.8,M,12.7,M*2E
$PGRMZ,684,f,3*11
$GPRTE,1,1,c,*37
$GPRMC,134220,A,4924.5803,N,00842.9150,E,2.6,71.1,010302,0.2,E,A*2A
$GPRMB,A,,,,,,,,,,,,A,A*0B
$GPGGA,134220,4924.5803,N,00842.9150,E,1,07,2.2,208.6,M,47.9,M,,*43
$GPGSA,A,3,02,03,15,17,18,22,23,,,,,,7.4,2.2,2.4*3C
$GPGSV,3,1,12,02,36,304,36,03,58,292,44,06,00,104,00,15,62,060,49*72
$GPGSV,3,2,12,17,45,056,47,18,46,109,43,21,35,155,00,22,54,201,47*7D
$GPGSV,3,3,12,23,28,048,40,26,06,053,00,27,11,324,00,31,19,288,00*75
$GPGLL,4924.5803,N,00842.9150,E,134220,A,A*47
$GPBOD,,T,,M,,*47
$PGRME,4.8,M,11.8,M,12.7,M*2E
$PGRMZ,684,f,3*11
$GPRTE,1,1,c,*37
$GPRMC,134222,A,4924.5807,N,00842.9173,E,2.6,71.5,010302,0.2,E,A*29
$GPRMB,A,,,,,,,,,,,,A,A*0B
$GPGGA,134222,4924.5807,N,00842.9173,E,1,07,1.9,208.5,M,47.9,M,,*4F
$GPGSA,A,3,02,03,15,17,18,22,23,,,,,,7.5,1.9,3.0*30
$GPGSV,3,1,12,02,36,304,38,03,58,292,45,06,00,104,00,15,62,060,49*7D
$GPGSV,3,2,12,17,45,056,46,18,46,109,43,21,35,155,00,22,54,201,46*7D
$GPGSV,3,3,12,23,28,048,39,26,06,053,00,27,11,324,00,31,19,288,00*7B
$GPGLL,4924.5807,N,00842.9173,E,134222,A,A*40
$GPBOD,,T,,M,,*47
$PGRME,4.8,M,12.1,M,13.0,M*22
$PGRMZ,684,f,3*11
$GPRTE,1,1,c,*37
$GPRMC,134224,A,4924.5811,N,00842.9195,E,2.6,71.9,010302,0.2,E,A*2C
$GPRMB,A,,,,,,,,,,,,A,A*0B
$GPGGA,134224,4924.5811,N,00842.9195,E,1,08,2.0,208.7,M,47.9,M,,*41
$GPGSA,A,3,02,03,15,17,18,22,23,31,,,,,7.6,2.0,3.6*3D
$GPGSV,3,1,12,02,36,304,38,03,58,292,47,06,00,104,00,15,62,060,49*7F
$GPGSV,3,2,12,17,45,056,47,18,46,109,43,21,35,155,00,22,54,201,45*7F
$GPGSV,3,3,12,23,28,048,00,26,06,053,00,27,11,324,00,31,19,288,38*7A
$GPGLL,4924.5811,N,00842.9195,E,134224,A,A*49
$GPBOD,,T,,M,,*47
$PGRME,4.8,M,11.8,M,12.7,M*2E
$PGRMZ,685,f,3*10
$GPRTE,1,1,c,*37
$GPRMC,134226,A,4924.5815,N,00842.9218,E,2.6,72.1,010302,0.2,E,A*27
$GPRMB,A,,,,,,,,,,,,A,A*0B
$GPGGA,134226,4924.5815,N,00842.9218,E,1,08,2.1,208.8,M,47.9,M,,*4F
$GPGSA,A,3,02,03,15,17,18,22,23,31,,,,,7.8,2.1,4.5*36
$GPGSV,3,1,12,02,36,304,38,03,58,292,48,06,00,104,00,15,62,060,49*70
$GPGSV,3,2,12,17,45,056,47,18,46,109,44,21,35,155,00,22,54,201,44*79
$GPGSV,3,3,12,23,28,048,00,26,06,053,00,27,11,324,00,31,19,288,00*71
$GPGLL,4924.5815,N,00842.9218,E,134226,A,A*49
$GPBOD,,T,,M,,*47
$PGRME,4.9,M,13.5,M,14.5,M*24
$PGRMZ,685,f,3*10
$GPRTE,1,1,c,*37
$GPRMC,134228,A,4924.5821,N,00842.9240,E,2.6,71.6,010302,0.2,E,A*27
$GPRMB,A,,,,,,,,,,,,A,A*0B
$GPGGA,134228,4924.5821,N,00842.9240,E,1,08,2.3,208.6,M,47.9,M,,*47
$GPGSA,A,3,02,03,15,17,18,22,23,31,,,,,3.9,2.3,1.0*31
$GPGSV,3,1,12,02,36,304,38,03,58,292,48,06,00,104,00,15,62,060,49*70
$GPGSV,3,2,12,17,45,056,46,18,46,109,45,21,35,155,00,22,54,201,00*79
$GPGSV,3,3,12,23,28,048,00,26,06,053,00,27,11,324,00,31,19,288,39*7B
$GPGLL,4924.5821,N,00842.9240,E,134228,A,A*4D
$GPBOD,,T,,M,,*47
$PGRME,5.7,M,11.8,M,14.4,M*25
$PGRMZ,684,f,3*11
$GPRTE,1,1,c,*37
$GPRMC,134230,A,4924.5822,N,00842.9265,E,2.6,76.8,010302,0.2,E,A*23
$GPRMB,A,,,,,,,,,,,,A,A*0B
$GPGGA,134230,4924.5822,N,00842.9265,E,1,08,2.7,208.6,M,47.9,M,,*4E
$GPGSA,A,3,02,03,15,17,18,22,23,31,,,,,6.3,2.7,3.8*30
$GPGSV,3,1,12,02,36,304,38,03,58,292,49,06,00,104,00,15,62,060,49*71
$GPGSV,3,2,12,17,45,056,45,18,46,109,46,21,35,155,00,22,54,201,44*79
$GPGSV,3,3,12,23,28,048,00,26,06,053,00,27,11,324,00,31,19,288,39*7B
$GPGLL,4924.5822,N,00842.9265,E,134230,A,A*40
$GPBOD,,T,,M,,*47
$PGRME,4.8,M,12.1,M,13.0,M*22
$PGRMZ,684,f,3*11
$GPRTE,1,1,c,*37
$GPRMC,134232,A,4924.5822,N,00842.9292,E,2.7,79.3,010302,0.2,E,A*2C
$GPRMB,A,,,,,,,,,,,,A,A*0B
$GPGGA,134232,4924.5822,N,00842.9292,E,1,08,1.9,208.8,M,47.9,M,,*47
$GPGSA,A,3,02,03,15,17,18,22,23,31,,,,,6.6,1.9,4.2*35
$GPGSV,3,1,12,02,36,304,36,03,58,292,48,06,00,104,00,15,62,060,49*7E
$GPGSV,3,2,12,17,45,056,46,18,46,109,46,21,35,155,00,22,54,201,45*7B
$GPGSV,3,3,12,23,28,048,42,26,06,052,00,27,11,324,00,31,19,288,00*76
$GPGLL,4924.5822,N,00842.9292,E,134232,A,A*4A
$GPBOD,,T,,M,,*47
$PGRME,4.8,M,11.8,M,12.7,M*2E
$PGRMZ,685,f,3*10
$GPRTE,1,1,c,*37
$GPRMC,134234,A,4924.5825,N,00842.9319,E,2.7,79.2,010302,0.2,E,A*2E
$GPRMB,A,,,,,,,,,,,,A,A*0B
$GPGGA,134234,4924.5825,N,00842.9319,E,1,08,2.0,208.6,M,47.9,M,,*40
$GPGSA,A,3,02,03,15,17,18,22,23,31,,,,,5.1,2.0,4.5*3C
$GPGSV,3,1,12,02,36,304,35,03,58,292,48,06,00,104,00,15,62,060,49*7D
$GPGSV,3,2,12,17,45,056,46,18,46,109,47,21,35,155,00,22,54,201,44*7B
$GPGSV,3,3,12,23,28,048,43,26,06,052,00,27,11,324,00,31,19,288,00*77
$GPGLL,4924.5825,N,00842.9319,E,134234,A,A*49
$GPBOD,,T,,M,,*47
$PGRME,4.9,M,12.1,M,13.0,M*23
$PGRMZ,684,f,3*11
$GPRTE,1,1,c,*37
$GPRMC,134236,A,4924.5829,N,00842.9345,E,2.8,78.9,010302,0.2,E,A*2C
$GPRMB,A,,,,,,,,,,,,A,A*0B
$GPGGA,134236,4924.5829,N,00842.9345,E,1,08,2.0,208.9,M,47.9,M,,*48
$GPGSA,A,3,02,03,15,17,18,22,23,31,,,,,5.1,2.0,4.5*3C
$GPGSV,3,1,12,02,36,304,00,03,58,292,48,06,00,104,00,15,62,060,49*7B
$GPGSV,3,2,12,17,45,056,46,18,46,109,48,21,35,155,00,22,54,201,42*72
$GPGSV,3,3,12,23,28,048,44,26,06,052,00,27,11,323,00,31,19,288,00*77
$GPGLL,4924.5829,N,00842.9345,E,134236,A,A*4E
$GPBOD,,T,,M,,*47
$PGRME,5.0,M,10.8,M,12.0,M*21
$PGRMZ,685,f,3*10
$GPRTE,1,1,c,*37
$GPRMC,134238,A,4924.5834,N,00842.9370,E,2.8,77.4,010302,0.2,E,A*2A
$GPRMB,A,,,,,,,,,,,,A,A*0B
$GPGGA,134238,4924.5834,N,00842.9370,E,1,08,1.7,208.9,M,47.9,M,,*48
$GPGSA,A,3,02,03,15,17,18,22,23,31,,,,,4.3,1.7,3.9*30
$GPGSV,3,1,12,02,36,304,00,03,58,292,48,06,00,104,00,15,62,060,49*7B
$GPGSV,3,2,12,17,45,056,46,18,46,109,48,21,35,155,00,22,54,201,44*74
$GPGSV,3,3,12,23,28,048,45,26,06,052,00,27,11,323,00,31,19,288,00*76
$GPGLL,4924.5834,N,00842.9370,E,134238,A,A*4A
$GPBOD,,T,,M,,*47
$PGRME,5.0,M,10.8,M,12.0,M*21
$PGRMZ,685,f,3*10
$GPRTE,1,1,c,*37
$GPRMC,134240,A,4924.5839,N,00842.9394,E,2.8,76.6,010302,0.2,E,A*21
$GPRMB,A,,,,,,,,,,,,A,A*0B
$GPGGA,134240,4924.5839,N,00842.9394,E,1,08,1.7,209.1,M,47.9,M,,*49
$GPGSA,A,3,02,03,15,17,18,22,23,31,,,,,4.7,1.7,4.4*3E
$GPGSV,3,1,12,02,36,304,00,03,58,292,49,06,00,104,00,15,62,060,49*7A
$GPGSV,3,2,12,17,45,056,46,18,46,109,48,21,35,155,00,22,54,201,47*77
$GPGSV,3,3,12,23,28,048,44,26,06,052,00,27,11,323,00,31,19,288,00*77
$GPGLL,4924.5839,N,00842.9394,E,134240,A,A*42
$GPBOD,,T,,M,,*47
$PGRME,5.0,M,10.8,M,12.0,M*21
$PGRMZ,686,f,3*13
$GPRTE,1,1,c,*37
$GPRMC,134242,A,4924.5843,N,00842.9419,E,2.8,75.7,010302,0.2,E,A*2E
$GPRMB,A,,,,,,,,,,,,A,A*0B
$GPGGA,134242,4924.5843,N,00842.9419,E,1,08,1.7,209.0,M,47.9,M,,*45
$GPGSA,A,3,02,03,15,17,18,22,23,31,,,,,4.3,1.7,3.9*30
$GPGSV,3,1,12,02,36,304,35,03,58,292,49,06,00,104,00,15,62,060,49*7C
$GPGSV,3,2,12,17,45,056,47,18,46,109,48,21,35,155,00,22,54,201,48*79
$GPGSV,3,3,12,23,28,048,45,26,06,052,00,27,11,323,00,31,19,288,00*76
$GPGLL,4924.5843,N,00842.9419,E,134242,A,A*4F
$GPBOD,,T,,M,,*47
$PGRME,4.8,M,10.9,M,12.1,M*28
$PGRMZ,686,f,3*13
$GPRTE,1,1,c,*37
$GPRMC,134244,A,4924.5850,N,00842.9443,E,2.8,73.2,010302,0.2,E,A*26
$GPRMB,A,,,,,,,,,,,,A,A*0B
$GPGGA,134244,4924.5850,N,00842.9443,E,1,09,1.4,209.2,M,47.9,M,,*4E
$GPGSA,A,3,02,03,15,17,18,21,22,23,31,,,,3.6,1.4,3.3*38
$GPGSV,3,1,12,02,36,304,00,03,58,292,49,06,00,104,00,15,62,060,49*7A
$GPGSV,3,2,12,17,45,056,47,18,46,109,48,21,35,155,36,22,54,201,48*7C
$GPGSV,3,3,12,23,28,048,44,26,06,052,00,27,11,323,00,31,19,288,00*77
$GPGLL,4924.5850,N,00842.9443,E,134244,A,A*44
$GPBOD,,T,,M,,*47
$PGRME,4.8,M,11.1,M,12.2,M*22
$PGRMZ,686,f,3*13
$GPRTE,1,1,c,*37
$GPRMC,134246,A,4924.5856,N,00842.9466,E,2.8,72.0,010302,0.2,E,A*26
$GPRMB,A,,,,,,,,,,,,A,A*0B
$GPGGA,134246,4924.5856,N,00842.9466,E,1,08,1.5,209.1,M,47.9,M,,*4E
$GPGSA,A,3,02,03,15,17,18,21,22,23,,,,,3.7,1.5,3.4*3D
$GPGSV,3,1,12,02,36,304,00,03,58,292,49,06,00,104,00,15,62,060,49*7A
$GPGSV,3,2,12,17,45,056,46,18,46,109,48,21,35,155,00,22,54,201,48*78
$GPGSV,3,3,12,23,28,048,44,26,06,052,00,27,11,323,00,31,19,288,00*77
$GPGLL,4924.5856,N,00842.9466,E,134246,A,A*47
$GPBOD,,T,,M,,*47
$PGRME,4.9,M,11.5,M,12.6,M*23
$PGRMZ,686,f,3*13
$GPRTE,1,1,c,*37
$GPRMC,134248,A,4924.5862,N,00842.9491,E,2.9,71.1,010302,0.2,E,A*24
$GPRMB,A,,,,,,,,,,,,A,A*0B
$GPGGA,134248,4924.5862,N,00842.9491,E,1,08,1.5,209.3,M,47.9,M,,*4D
$GPGSA,A,3,02,03,15,17,18,21,22,23,,,,,3.7,1.5,3.4*3D
$GPGSV,3,1,12,02,36,304,39,03,58,292,49,06,00,104,00,15,62,060,49*70
$GPGSV,3,2,12,17,45,056,47,18,46,109,48,21,35,155,00,22,54,201,49*78
$GPGSV,3,3,12,23,28,048,44,26,06,052,00,27,11,323,00,31,19,288,00*77
$GPGLL,4924.5862,N,00842.9491,E,134248,A,A*46
$GPBOD,,T,,M,,*47
$PGRME,4.8,M,11.5,M,12.6,M*22
$PGRMZ,687,f,3*12
$GPRTE,1,1,c,*37
$GPRMC,134250,A,4924.5867,N,00842.9517,E,2.9,71.7,010302,0.2,E,A*21
$GPRMB,A,,,,,,,,,,,,A,A*0B
$GPGGA,134250,4924.5867,N,00842.9517,E,1,08,1.5,209.2,M,47.9,M,,*4F
$GPGSA,A,3,02,03,15,17,18,21,22,23,,,,,3.7,1.5,3.4*3D
$GPGSV,3,1,12,02,36,304,39,03,58,292,49,06,00,104,00,15,62,060,49*70
$GPGSV,3,2,12,17,45,056,47,18,46,109,48,21,35,155,00,22,54,201,50*70
$GPGSV,3,3,12,23,28,048,43,26,06,052,00,27,11,323,00,31,20,289,00*7B
$GPGLL,4924.5867,N,00842.9517,E,134250,A,A*45
$GPBOD,,T,,M,,*47
$PGRME,4.9,M,11.8,M,12.9,M*21
$PGRMZ,686,f,3*13
$GPRTE,1,1,c,*37
$GPRMC,134252,A,4924.5873,N,00842.9541,E,2.9,70.7,010302,0.2,E,A*24
$GPRMB,A,,,,,,,,,,,,A,A*0B
$GPGGA,134252,4924.5873,N,00842.9541,E,1,08,1.5,209.5,M,47.9,M,,*4C
$GPGSA,A,3,02,03,15,17,18,21,22,23,,,,,4.2,1.5,3.9*32
$GPGSV,3,1,12,02,36,304,39,03,58,292,49,06,00,104,00,15,62,060,49*70
$GPGSV,3,2,12,17,45,056,46,18,46,109,48,21,35,155,00,22,54,201,50*71
$GPGSV,3,3,12,23,28,048,42,26,06,052,00,27,11,323,00,31,20,289,00*7A
$GPGLL,4924.5873,N,00842.9541,E,134252,A,A*41
$GPBOD,,T,,M,,*47
$PGRME,4.8,M,11.8,M,12.7,M*2E
$PGRMZ,687,f,3*12
$GPRTE,1,1,c,*37
$GPRMC,134254,A,4924.5881,N,00842.9564,E,2.9,68.5,010302,0.2,E,A*23
$GPRMB,A,,,,,,,,,,,,A,A*0B
$GPGGA,134254,4924.5881,N,00842.9564,E,1,08,1.5,209.4,M,47.9,M,,*41
$GPGSA,A,3,02,03,15,17,18,22,23,31,,,,,4.2,1.5,3.9*33
$GPGSV,3,1,12,02,36,304,38,03,58,292,49,06,00,104,00,15,62,060,49*71
$GPGSV,3,2,12,17,45,056,46,18,46,109,48,21,35,155,00,22,54,201,50*71
$GPGSV,3,3,12,23,28,048,41,26,06,052,00,27,11,323,00,31,20,289,36*7C
$GPGLL,4924.5881,N,00842.9564,E,134254,A,A*4D
$GPBOD,,T,,M,,*47
$PGRME,4.8,M,10.6,M,11.7,M*22
$PGRMZ,687,f,3*12
$GPRTE,1,1,c,*37
$GPRMC,134256,A,4924.5888,N,00842.9587,E,2.9,67.2,010302,0.2,E,A*2D
$GPRMB,A,,,,,,,,,,,,A,A*0B
$GPGGA,134256,4924.5888,N,00842.9587,E,1,08,1.6,209.6,M,47.9,M,,*46
$GPGSA,A,3,02,03,15,17,18,22,23,31,,,,,4.6,1.6,4.3*39
$GPGSV,3,1,12,02,36,304,38,03,58,292,49,06,00,104,00,15,62,060,49*71
$GPGSV,3,2,12,17,45,056,47,18,46,109,49,21,35,155,00,22,54,201,49*79
$GPGSV,3,3,12,23,28,048,41,26,06,052,00,27,11,323,00,31,20,289,33*79
$GPGLL,4924.5888,N,00842.9587,E,134256,A,A*4B
$GPBOD,,T,,M,,*47
$PGRME,4.6,M,10.0,M,11.1,M*2C
$PGRMZ,688,f,3*1D
$GPRTE,1,1,c,*37
$GPRMC,134258,A,4924.5894,N,00842.9610,E,2.9,66.9,010302,0.2,E,A*29
$GPRMB,A,,,,,,,,,,,,A,A*0B
$GPGGA,134258,4924.5894,N,00842.9610,E,1,08,1.6,209.8,M,47.9,M,,*46
$GPGSA,A,3,02,03,15,17,18,22,23,31,,,,,4.6,1.6,4.3*39
$GPGSV,3,1,12,02,36,304,37,03,58,292,48,06,00,104,00,15,62,060,49*7F
$GPGSV,3,2,12,17,45,056,47,18,46,109,48,21,35,155,00,22,54,201,49*78
$GPGSV,3,3,12,23,28,048,39,26,06,052,00,27,11,323,00,31,20,289,00*76
$GPGLL,4924.5894,N,00842.9610,E,134258,A,A*45
$GPBOD,,T,,M,,*47
$PGRME,4.9,M,12.0,M,13.0,M*22
$PGRMZ,688,f,3*1D
$GPRTE,1,1,c,*37
$GPRMC,134300,A,4924.5901,N,00842.9633,E,2.9,66.4,010302,0.2,E,A*24
$GPRMB,A,,,,,,,,,,,,A,A*0B
$GPGGA,134300,4924.5901,N,00842.9633,E,1,08,1.6,209.9,M,47.9,M,,*47
$GPGSA,A,3,02,03,15,17,18,22,23,31,,,,,4.6,1.6,4.3*39
$GPGSV,3,1,12,02,36,304,36,03,58,292,48,06,00,104,00,15,62,060,49*7E
$GPGSV,3,2,12,17,45,056,46,18,46,109,46,21,35,155,00,22,54,201,50*7F
$GPGSV,3,3,12,23,28,048,38,26,06,052,00,27,11,323,00,31,20,289,00*77
$GPGLL,4924.5901,N,00842.9633,E,134300,A,A*45
$GPBOD,,T,,M,,*47
$PGRME,5.1,M,13.6,M,14.6,M*2D
$PGRMZ,689,f,3*1C
$GPRTE,1,1,c,*37
$GPRMC,134302,A,4924.5907,N,00842.9657,E,2.9,66.6,010302,0.2,E,A*20
$GPRMB,A,,,,,,,,,,,,A,A*0B
$GPGGA,134302,4924.5907,N,00842.9657,E,1,08,1.6,209.9,M,47.9,M,,*41
$GPGSA,A,3,02,03,15,17,18,22,23,31,,,,,3.5,1.6,3.1*38
$GPGSV,3,1,12,02,36,303,39,03,58,292,50,06,00,104,00,15,62,060,49*7F
$GPGSV,3,2,12,17,45,056,46,18,46,109,44,21,35,155,00,22,54,201,50*7D
$GPGSV,3,3,12,23,28,048,39,26,06,052,00,27,11,323,00,31,20,289,40*72
$GPGLL,4924.5907,N,00842.9657,E,134302,A,A*43
$GPBOD,,T,,M,,*47
$PGRME,4.7,M,10.1,M,11.1,M*2C
$PGRMZ,689,f,3*1C
$GPRTE,1,1,c,*37
$GPRMC,134304,A,4924.5914,N,00842.9681,E,2.9,66.3,010302,0.2,E,A*2A
$GPRMB,A,,,,,,,,,,,,A,A*0B
$GPGGA,134304,4924.5914,N,00842.9681,E,1,08,1.7,210.0,M,47.9,M,,*4E
$GPGSA,A,3,02,03,15,17,18,22,23,31,,,,,4.1,1.7,3.7*3C
$GPGSV,3,1,12,02,36,303,40,03,58,292,50,06,00,104,00,15,62,060,49*71
$GPGSV,3,2,12,17,45,056,46,18,46,109,43,21,35,155,00,22,54,201,49*72
$GPGSV,3,3,12,23,28,048,00,26,06,052,00,27,11,323,00,31,20,289,39*76
$GPGLL,4924.5914,N,00842.9681,E,134304,A,A*4C
$GPBOD,,T,,M,,*47
$PGRME,4.8,M,10.8,M,11.8,M*23
$PGRMZ,689,f,3*1C
$GPRTE,1,1,c,*37
$GPRMC,134306,A,4924.5921,N,00842.9704,E,2.9,66.0,010302,0.2,E,A*21
$GPRMB,A,,,,,,,,,,,,A,A*0B
$GPGGA,134306,4924.5921,N,00842.9704,E,1,08,1.8,209.9,M,47.9,M,,*48
$GPGSA,A,3,02,03,15,17,18,22,23,31,,,,,5.0,1.8,4.6*35
$GPGSV,3,1,12,02,36,303,39,03,59,292,50,06,00,104,00,15,62,060,48*7F
$GPGSV,3,2,12,17,45,056,45,18,46,109,42,21,35,155,00,22,54,201,49*70
$GPGSV,3,3,12,23,28,048,37,26,06,052,00,27,11,323,00,31,20,289,36*7D
$GPGLL,4924.5921,N,00842.9704,E,134306,A,A*44
$GPBOD,,T,,M,,*47
$PGRME,4.8,M,11.0,M,12.0,M*21
$PGRMZ,689,f,3*1C
$GPRTE,1,1,c,*37
$GPRMC,134308,A,4924.5928,N,00842.9728,E,2.9,65.2,010302,0.2,E,A*29
$GPRMB,A,,,,,,,,,,,,A,A*0B
$GPGGA,134308,4924.5928,N,00842.9728,E,1,08,1.6,210.1,M,47.9,M,,*4F
$GPGSA,A,3,02,03,15,17,18,22,23,31,,,,,4.7,1.6,4.4*3F
$GPGSV,3,1,12,02,36,303,41,03,59,292,50,06,00,104,00,15,62,060,48*70
$GPGSV,3,2,12,17,45,056,44,18,46,109,45,21,35,155,00,22,54,201,48*77
$GPGSV,3,3,12,23,28,048,39,26,06,052,00,27,11,323,00,31,20,289,00*76
$GPGLL,4924.5928,N,00842.9728,E,134308,A,A*4D
$GPBOD,,T,,M,,*47
$PGRME,4.8,M,11.0,M,12.0,M*21
$PGRMZ,689,f,3*1C
$GPRTE,1,1,c,*37
$GPRMC,134310,A,4924.5937,N,00842.9751,E,2.9,63.9,010302,0.2,E,A*2D
$GPRMB,A,,,,,,,,,,,,A,A*0B
$GPGGA,134310,4924.5937,N,00842.9751,E,1,08,1.8,210.2,M,47.9,M,,*4B
$GPGSA,A,3,02,03,15,17,18,22,23,31,,,,,4.8,1.8,4.4*3E
$GPGSV,3,1,12,02,36,303,42,03,59,292,50,06,00,104,00,15,62,060,48*73
$GPGSV,3,2,12,17,45,056,42,18,46,109,46,21,35,155,00,22,54,201,46*7C
$GPGSV,3,3,12,23,28,048,40,26,06,052,00,27,11,323,00,31,20,289,00*78
$GPGLL,4924.5937,N,00842.9751,E,134310,A,A*44
$GPBOD,,T,,M,,*47
$PGRME,4.8,M,11.0,M,12.0,M*21
$PGRMZ,690,f,3*14
$GPRTE,1,1,c,*37
$GPRMC,134312,A,4924.5945,N,00842.9774,E,3.0,62.0,010302,0.2,E,A*2D
$GPRMB,A,,,,,,,,,,,,A,A*0B
$GPGGA,134312,4924.5945,N,00842.9774,E,1,09,2.1,210.4,M,47.9,M,,*46
$GPGSA,A,3,02,03,15,17,18,21,22,23,31,,,,2.3,2.1,1.0*3B
$GPGSV,3,1,12,02,36,303,43,03,59,292,50,06,00,104,00,15,62,060,46*7C
$GPGSV,3,2,12,17,45,056,43,18,46,109,46,21,35,155,38,22,54,201,43*73
$GPGSV,3,3,12,23,28,048,42,26,06,052,00,27,11,323,00,31,20,289,00*7A
$GPGLL,4924.5945,N,00842.9774,E,134312,A,A*44
$GPBOD,,T,,M,,*47
$PGRME,4.8,M,10.9,M,11.9,M*23
$PGRMZ,690,f,3*14
$GPRTE,1,1,c,*37
$GPRMC,134314,A,4924.5955,N,00842.9797,E,3.0,60.4,010302,0.2,E,A*21
$GPRMB,A,,,,,,,,,,,,A,A*0B
$GPGGA,134314,4924.5955,N,00842.9797,E,1,09,3.3,210.6,M,47.9,M,,*4D
$GPGSA,A,3,02,03,15,17,18,21,22,23,31,,,,5.2,3.3,1.0*3E
$GPGSV,3,1,12,02,36,303,42,03,59,292,49,06,00,104,00,15,62,060,45*76
$GPGSV,3,2,12,17,45,056,44,18,46,109,44,21,35,155,42,22,54,201,42*7A
$GPGSV,3,3,12,23,28,048,44,26,06,052,00,27,11,323,00,31,20,289,00*7C
$GPGLL,4924.5955,N,00842.9797,E,134314,A,A*4E
$GPBOD,,T,,M,,*47
$PGRME,4.6,M,11.3,M,12.4,M*28
$PGRMZ,691,f,3*15
$GPRTE,1,1,c,*37
$GPRMC,134316,A,4924.5966,N,00842.9815,E,3.0,57.9,010302,0.2,E,A*2F
$GPRMB,A,,,,,,,,,,,,A,A*0B
$GPGGA,134316,4924.5966,N,00842.9815,E,1,08,1.9,210.9,M,47.9,M,,*4C
$GPGSA,A,3,02,03,15,17,18,21,22,23,,,,,4.3,1.9,1.6*32
$GPGSV,3,1,12,02,36,303,42,03,59,292,48,06,00,104,00,15,62,060,45*77
$GPGSV,3,2,12,17,45,056,44,18,46,109,45,21,35,155,42,22,54,201,44*7D
$GPGSV,3,3,12,23,28,048,44,26,06,052,00,27,11,323,00,31,20,289,00*7C
$GPGLL,4924.5966,N,00842.9815,E,134316,A,A*49
$GPBOD,,T,,M,,*47
$PGRME,4.0,M,10.1,M,10.9,M*22
$PGRMZ,692,f,3*16
$GPRTE,1,1,c,*37
$GPRMC,134318,A,4924.5978,N,00842.9829,E,2.8,50.7,010302,0.2,E,A*21
$GPRMB,A,,,,,,,,,,,,A,A*0B
$GPGGA,134318,4924.5978,N,00842.9829,E,1,09,1.2,211.2,M,47.9,M,,*42
$GPGSA,A,3,02,03,15,17,18,21,22,23,31,,,,3.0,1.2,1.9*30
$GPGSV,3,1,12,02,36,303,42,03,59,292,46,06,00,104,00,15,62,060,47*7B
$GPGSV,3,2,12,17,45,056,45,18,46,109,45,21,35,155,42,22,53,201,45*7A
$GPGSV,3,3,12,23,28,048,44,26,06,052,00,27,11,323,00,31,20,289,35*7A
$GPGLL,4924.5978,N,00842.9829,E,134318,A,A*47
$GPBOD,,T,,M,,*47
$PGRME,3.9,M,8.9,M,9.8,M*24
$PGRMZ,693,f,3*17
$GPRTE,1,1,c,*37
$GPRMC,134320,A,4924.5990,N,00842.9836,E,2.6,44.1,010302,0.2,E,A*2F
$GPRMB,A,,,,,,,,,,,,A,A*0B
$GPGGA,134320,4924.5990,N,00842.9836,E,1,09,1.6,211.3,M,47.9,M,,*44
$GPGSA,A,3,02,03,15,17,18,21,22,23,31,,,,3.6,1.6,1.0*3B
$GPGSV,3,1,12,02,36,303,41,03,59,292,45,06,00,104,00,15,62,060,48*74
$GPGSV,3,2,12,17,45,056,46,18,46,109,47,21,35,155,41,22,53,201,44*79
$GPGSV,3,3,12,23,28,048,45,26,06,052,00,27,11,323,00,31,20,289,35*7B
$GPGLL,4924.5990,N,00842.9836,E,134320,A,A*44
$GPBOD,,T,,M,,*47
$PGRME,3.9,M,9.1,M,9.9,M*2C
$PGRMZ,693,f,3*17
$GPRTE,1,1,c,*37
$GPRMC,134322,A,4924.6000,N,00842.9834,E,2.2,29.1,010302,0.2,E,A*23
$GPRMB,A,,,,,,,,,,,,A,A*0B
$GPGGA,134322,4924.6000,N,00842.9834,E,1,09,1.1,211.5,M,47.9,M,,*46
$GPGSA,A,3,02,03,15,17,18,21,22,23,31,,,,2.9,1.1,1.2*30
$GPGSV,3,1,12,02,36,303,44,03,59,292,43,06,00,104,00,15,62,060,48*77
$GPGSV,3,2,12,17,45,056,46,18,46,109,47,21,35,155,45,22,53,201,46*7F
$GPGSV,3,3,12,23,28,048,44,26,06,052,00,27,11,323,00,31,20,289,37*78
$GPGLL,4924.6000,N,00842.9834,E,134322,A,A*47
$GPBOD,,T,,M,,*47
$PGRME,3.9,M,8.8,M,9.6,M*2B
$PGRMZ,694,f,3*10
$GPRTE,1,1,c,*37
$GPRMC,134324,A,4924.6013,N,00842.9830,E,2.1,15.6,010302,0.2,E,A*28
$GPRMB,A,,,,,,,,,,,,A,A*0B
$GPGGA,134324,4924.6013,N,00842.9830,E,1,09,1.3,211.3,M,47.9,M,,*42
$GPGSA,A,3,02,03,15,17,18,21,22,23,31,,,,3.0,1.3,1.0*38
$GPGSV,3,1,12,02,36,303,44,03,59,292,45,06,00,104,00,15,62,060,47*7E
$GPGSV,3,2,12,17,45,056,45,18,46,109,46,21,35,155,42,22,53,201,44*78
$GPGSV,3,3,12,23,28,048,44,26,06,052,00,27,11,323,00,31,20,289,40*78
$GPGLL,4924.6013,N,00842.9830,E,134324,A,A*47
$GPBOD,,T,,M,,*47
$PGRME,3.9,M,8.8,M,9.6,M*2B
$PGRMZ,693,f,3*17
$GPRTE,1,1,c,*37
$GPRMC,134326,A,4924.6013,N,00842.9831,E,1.5,14.7,010302,0.2,E,A*2C
$GPRMB,A,,,,,,,,,,,,A,A*0B
$GPGGA,134326,4924.6013,N,00842.9831,E,1,09,1.3,211.1,M,47.9,M,,*43
$GPGSA,A,3,02,03,15,17,18,21,22,23,31,,,,2.7,1.3,1.1*3F
$GPGSV,3,1,12,02,36,303,45,03,59,292,45,06,00,104,00,15,62,060,47*7F
$GPGSV,3,2,12,17,45,056,46,18,46,109,46,21,35,155,00,22,53,201,45*7C
$GPGSV,3,3,12,23,28,048,44,26,06,052,00,27,11,323,00,31,20,289,38*77
$GPGLL,4924.6013,N,00842.9831,E,134326,A,A*44
$GPBOD,,T,,M,,*47
$PGRME,3.9,M,8.9,M,9.8,M*24
$PGRMZ,693,f,3*17
$GPRTE,1,1,c,*37
$GPRMC,134328,A,4924.6013,N,00842.9831,E,1.1,14.7,010302,0.2,E,A*26
$GPRMB,A,,,,,,,,,,,,A,A*0B
$GPGGA,134328,4924.6013,N,00842.9831,E,1,09,1.3,211.2,M,47.9,M,,*4E
$GPGSA,A,3,02,03,15,17,18,21,22,23,31,,,,2.7,1.3,1.1*3F
$GPGSV,3,1,12,02,36,303,46,03,59,292,46,06,00,104,00,15,62,060,47*7F
$GPGSV,3,2,12,17,45,056,46,18,46,109,46,21,35,155,00,22,53,201,47*7E
$GPGSV,3,3,12,23,28,048,45,26,06,052,00,27,11,323,00,31,20,289,38*76
$GPGLL,4924.6013,N,00842.9831,E,134328,A,A*4A
$GPBOD,,T,,M,,*47
$PGRME,3.9,M,8.9,M,9.8,M*24
$PGRMZ,693,f,3*17
$GPRTE,1,1,c,*37
$GPRMC,134330,A,4924.6013,N,00842.9832,E,0.0,14.7,010302,0.2,E,A*2C
$GPRMB,A,,,,,,,,,,,,A,A*0B
$GPGGA,134330,4924.6013,N,00842.9832,E,1,09,1.3,211.2,M,47.9,M,,*44
$GPGSA,A,3,02,03,15,17,18,21,22,23,31,,,,2.7,1.3,1.1*3F
$GPGSV,3,1,12,02,36,303,47,03,59,292,46,06,00,104,00,15,62,060,47*7E
$GPGSV,3,2,12,17,45,056,45,18,46,109,45,21,35,155,00,22,53,201,47*7E
$GPGSV,3,3,12,23,28,048,45,26,06,052,00,27,11,323,00,31,20,289,39*77
$GPGLL,4924.6013,N,00842.9832,E,134330,A,A*40
$GPBOD,,T,,M,,*47
$PGRME,3.9,M,8.9,M,9.8,M*24
$PGRMZ,693,f,3*17
$GPRTE,1,1,c,*37
$GPRMC,134332,A,4924.6013,N,00842.9833,E,0.0,14.7,010302,0.2,E,A*2F
$GPRMB,A,,,,,,,,,,,,A,A*0B
$GPGGA,134332,4924.6013,N,00842.9833,E,1,09,1.3,211.0,M,47.9,M,,*45
$GPGSA,A,3,02,03,15,17,18,21,22,23,31,,,,2.7,1.3,1.1*3F
$GPGSV,3,1,12,02,36,303,47,03,59,292,47,06,00,104,00,15,62,060,47*7F
$GPGSV,3,2,12,17,45,056,45,18,46,109,45,21,35,155,00,22,53,201,48*71
$GPGSV,3,3,12,23,28,048,45,26,06,052,00,27,11,323,00,31,20,289,39*77
$GPGLL,4924.6013,N,00842.9833,E,134332,A,A*43
$GPBOD,,T,,M,,*47
$PGRME,3.9,M,8.9,M,9.8,M*24
$PGRMZ,692,f,3*16
$GPRTE,1,1,c,*37
$GPRMC,134334,A,4924.6013,N,00842.9833,E,0.0,14.7,010302,0.2,E,A*29
$GPRMB,A,,,,,,,,,,,,A,A*0B
$GPGGA,134334,4924.6013,N,00842.9833,E,1,09,1.3,211.0,M,47.9,M,,*43
$GPGSA,A,3,02,03,15,17,18,21,22,23,31,,,,2.7,1.3,1.1*3F
$GPGSV,3,1,12,02,36,303,47,03,59,292,47,06,00,104,00,15,62,060,47*7F
$GPGSV,3,2,12,17,45,056,45,18,46,109,45,21,35,155,32,22,53,201,48*70
$GPGSV,3,3,12,23,28,048,45,26,06,052,00,27,11,323,00,31,20,289,39*77
$GPGLL,4924.6013,N,00842.9833,E,134334,A,A*45
$GPBOD,,T,,M,,*47
$PGRME,3.9,M,9.0,M,9.8,M*2C
$PGRMZ,692,f,3*16
$GPRTE,1,1,c,*37
$GPRMC,134336,A,4924.6013,N,00842.9834,E,0.0,14.7,010302,0.2,E,A*2C
$GPRMB,A,,,,,,,,,,,,A,A*0B
$GPGGA,134336,4924.6013,N,00842.9834,E,1,09,1.0,211.2,M,47.9,M,,*47
$GPGSA,A,3,02,03,15,17,18,21,22,23,31,,,,2.3,1.0,1.3*3A
$GPGSV,3,1,12,02,36,303,47,03,59,292,47,06,00,104,00,15,62,060,47*7F
$GPGSV,3,2,12,17,45,056,45,18,46,109,45,21,35,155,33,22,53,201,49*70
$GPGSV,3,3,12,23,28,048,46,26,06,052,00,27,11,323,00,31,20,289,39*74
$GPGLL,4924.6013,N,00842.9834,E,134336,A,A*40
$GPBOD,,T,,M,,*47
$PGRME,3.9,M,8.8,M,9.6,M*2B
$PGRMZ,693,f,3*17
$GPRTE,1,1,c,*37
$GPRMC,134338,A,4924.6014,N,00842.9835,E,0.0,14.7,010302,0.2,E,A*24
$GPRMB,A,,,,,,,,,,,,A,A*0B
$GPGGA,134338,4924.6014,N,00842.9835,E,1,09,1.0,211.3,M,47.9,M,,*4E
$GPGSA,A,3,02,03,15,17,18,21,22,23,31,,,,2.3,1.0,1.5*3C
$GPGSV,3,1,12,02,36,303,47,03,59,292,47,06,00,104,00,15,62,060,47*7F
$GPGSV,3,2,12,17,45,056,44,18,46,109,45,21,35,155,32,22,53,201,49*70
$GPGSV,3,3,12,23,28,048,46,26,06,052,00,27,11,323,00,31,20,289,40*7A
$GPGLL,4924.6014,N,00842.9835,E,134338,A,A*48
$GPBOD,,T,,M,,*47
$PGRME,3.9,M,8.8,M,9.6,M*2B
$PGRMZ,693,f,3*17
$GPRTE,1,1,c,*37
$GPRMC,134340,A,4924.6015,N,00842.9835,E,0.0,14.7,010302,0.2,E,A*2A
$GPRMB,A,,,,,,,,,,,,A,A*0B
$GPGGA,134340,4924.6015,N,00842.9835,E,1,09,1.0,211.4,M,47.9,M,,*47
$GPGSA,A,3,02,03,15,17,18,21,22,23,31,,,,2.3,1.0,1.6*3F
$GPGSV,3,1,12,02,36,303,47,03,59,292,48,06,00,104,00,15,62,060,47*70
$GPGSV,3,2,12,17,45,056,44,18,46,109,45,21,35,155,32,22,53,201,49*70
$GPGSV,3,3,12,23,28,048,46,26,06,052,00,27,11,323,00,31,20,289,40*7A
$GPGLL,4924.6015,N,00842.9835,E,134340,A,A*46
$GPBOD,,T,,M,,*47
$PGRME,3.9,M,8.8,M,9.6,M*2B
$PGRMZ,694,f,3*10
$GPRTE,1,1,c,*37
$GPRMC,134342,A,4924.6015,N,00842.9836,E,0.0,14.7,010302,0.2,E,A*2B
$GPRMB,A,,,,,,,,,,,,A,A*0B
$GPGGA,134342,4924.6015,N,00842.9836,E,1,09,1.0,211.5,M,47.9,M,,*47
$GPGSA,A,3,02,03,15,17,18,21,22,23,31,,,,2.3,1.0,1.6*3F
$GPGSV,3,1,12,02,36,303,47,03,59,292,48,06,00,104,00,15,62,060,47*70
$GPGSV,3,2,12,17,45,056,44,18,46,109,45,21,35,155,00,22,53,201,49*71
$GPGSV,3,3,12,23,28,048,46,26,06,052,00,27,11,323,00,31,20,289,41*7B
$GPGLL,4924.6015,N,00842.9836,E,134342,A,A*47
$GPBOD,,T,,M,,*47
$PGRME,3.9,M,9.0,M,9.8,M*2C
$PGRMZ,694,f,3*10
$GPRTE,1,1,c,*37
$GPRMC,134344,A,4924.6015,N,00842.9837,E,0.0,14.7,010302,0.2,E,A*2C
$GPRMB,A,,,,,,,,,,,,A,A*0B
$GPGGA,134344,4924.6015,N,00842.9837,E,1,09,1.0,211.6,M,47.9,M,,*43
$GPGSA,A,3,02,03,15,17,18,21,22,23,31,,,,2.3,1.0,1.6*3F
$GPGSV,3,1,12,02,36,303,47,03,59,292,47,06,00,104,00,15,62,060,47*7F
$GPGSV,3,2,12,17,45,056,44,18,46,109,45,21,35,155,00,22,53,201,49*71
$GPGSV,3,3,12,23,28,048,46,26,06,052,00,27,11,323,00,31,20,289,41*7B
$GPGLL,4924.6015,N,00842.9837,E,134344,A,A*40
$GPBOD,,T,,M,,*47
$PGRME,3.9,M,9.0,M,9.8,M*2C
$PGRMZ,694,f,3*10
$GPRTE,1,1,c,*37
$GPRMC,134346,A,4924.6015,N,00842.9838,E,0.0,14.7,010302,0.2,E,A*21
$GPRMB,A,,,,,,,,,,,,A,A*0B
$GPGGA,134346,4924.6015,N,00842.9838,E,1,09,1.0,211.7,M,47.9,M,,*4F
$GPGSA,A,3,02,03,15,17,18,21,22,23,31,,,,2.3,1.0,1.6*3F
$GPGSV,3,1,12,02,36,303,47,03,59,292,47,06,00,104,00,15,62,060,46*7E
$GPGSV,3,2,12,17,45,056,44,18,46,109,45,21,35,155,00,22,53,201,49*71
$GPGSV,3,3,12,23,28,048,46,26,06,052,00,27,11,323,00,31,20,289,41*7B
$GPGLL,4924.6015,N,00842.9838,E,134346,A,A*4D
$GPBOD,,T,,M,,*47
$PGRME,3.9,M,9.0,M,9.8,M*2C
$PGRMZ,695,f,3*11
$GPRTE,1,1,c,*37
$GPRMC,134348,A,4924.6015,N,00842.9840,E,0.0,14.7,010302,0.2,E,A*20
$GPRMB,A,,,,,,,,,,,,A,A*0B
$GPGGA,134348,4924.6015,N,00842.9840,E,1,09,1.0,211.8,M,47.9,M,,*41
$GPGSA,A,3,02,03,15,17,18,21,22,23,31,,,,2.3,1.0,1.6*3F
$GPGSV,3,1,12,02,36,303,47,03,59,292,47,06,00,104,00,15,62,060,46*7E
$GPGSV,3,2,12,17,45,056,44,18,46,109,45,21,35,155,00,22,53,201,49*71
$GPGSV,3,3,12,23,28,047,46,26,06,052,00,27,11,323,00,31,20,289,41*74
$GPGLL,4924.6015,N,00842.9840,E,134348,A,A*4C
$GPBOD,,T,,M,,*47
$PGRME,3.9,M,9.0,M,9.8,M*2C
$PGRMZ,695,f,3*11
$GPRTE,1,1,c,*37
$GPRMC,134350,A,4924.6015,N,00842.9841,E,0.0,14.7,010302,0.2,E,A*28
$GPRMB,A,,,,,,,,,,,,A,A*0B
$GPGGA,134350,4924.6015,N,00842.9841,E,1,08,1.0,211.8,M,47.9,M,,*48
$GPGSA,A,3,02,03,15,17,18,22,23,31,,,,,2.4,1.0,1.7*3A
$GPGSV,3,1,12,02,36,303,47,03,59,292,47,06,00,104,00,15,61,060,46*7D
$GPGSV,3,2,12,17,45,056,44,18,46,109,45,21,35,155,00,22,53,201,49*71
$GPGSV,3,3,12,23,28,047,46,26,06,052,00,27,11,323,00,31,20,289,41*74
$GPGLL,4924.6015,N,00842.9841,E,134350,A,A*44
$GPBOD,,T,,M,,*47
$PGRME,3.9,M,9.0,M,9.8,M*2C
$PGRMZ,695,f,3*11
$GPRTE,1,1,c,*37
$GPRMC,134352,A,4924.6015,N,00842.9842,E,0.0,14.7,010302,0.2,E,A*29
$GPRMB,A,,,,,,,,,,,,A,A*0B
$GPGGA,134352,4924.6015,N,00842.9842,E,1,08,1.0,211.8,M,47.9,M,,*49
$GPGSA,A,3,02,03,15,17,18,22,23,31,,,,,2.4,1.0,1.7*3A
$GPGSV,3,1,12,02,36,303,47,03,59,292,47,06,00,104,00,15,61,060,47*7C
$GPGSV,3,2,12,17,45,056,44,18,46,109,45,21,35,155,00,22,53,201,49*71
$GPGSV,3,3,12,23,28,047,46,26,06,052,00,27,11,323,00,31,20,289,41*74
$GPGLL,4924.6015,N,00842.9842,E,134352,A,A*45
$GPBOD,,T,,M,,*47
$PGRME,4.0,M,9.1,M,9.9,M*22
$PGRMZ,695,f,3*11
$GPRTE,1,1,c,*37
$GPRMC,134354,A,4924.6011,N,00842.9847,E,0.0,14.7,010302,0.2,E,A*2E
$GPRMB,A,,,,,,,,,,,,A,A*0B
$GPGGA,134354,4924.6011,N,00842.9847,E,1,08,1.0,211.8,M,47.9,M,,*4E
$GPGSA,A,3,02,03,15,17,18,22,23,31,,,,,2.4,1.0,1.7*3A
$GPGSV,3,1,12,02,36,303,47,03,59,292,47,06,00,104,00,15,61,060,47*7C
$GPGSV,3,2,12,17,45,056,45,18,46,109,45,21,35,155,00,22,53,201,47*7E
$GPGSV,3,3,12,23,28,047,46,26,06,052,00,27,11,323,00,31,20,289,41*74
$GPGLL,4924.6011,N,00842.9847,E,134354,A,A*42
$GPBOD,,T,,M,,*47
$PGRME,4.0,M,9.1,M,9.9,M*22
$PGRMZ,695,f,3*11
$GPRTE,1,1,c,*37
$GPRMC,134356,A,4924.6012,N,00842.9866,E,0.0,14.7,010302,0.2,E,A*2C
$GPRMB,A,,,,,,,,,,,,A,A*0B
$GPGGA,134356,4924.6012,N,00842.9866,E,1,09,1.4,211.7,M,47.9,M,,*46
$GPGSA,A,3,02,03,15,17,18,21,22,23,31,,,,2.8,1.4,2.0*35
$GPGSV,3,1,12,02,36,303,00,03,59,292,46,06,00,104,00,15,61,060,48*71
$GPGSV,3,2,12,17,45,056,46,18,46,109,46,21,35,155,42,22,53,201,46*79
$GPGSV,3,3,12,23,28,047,46,26,06,052,00,27,11,323,00,31,20,289,00*71
$GPGLL,4924.6012,N,00842.9866,E,134356,A,A*40
$GPBOD,,T,,M,,*47
$PGRME,4.3,M,9.3,M,10.2,M*10
$PGRMZ,694,f,3*10
$GPRTE,1,1,c,*37
$GPRMC,134358,A,4924.6013,N,00842.9889,E,1.2,14.7,010302,0.2,E,A*21
$GPRMB,A,,,,,,,,,,,,A,A*0B
$GPGGA,134358,4924.6013,N,00842.9889,E,1,09,1.6,211.8,M,47.9,M,,*45
$GPGSA,A,3,02,03,15,17,18,21,22,23,31,,,,3.4,1.6,1.2*3B
$GPGSV,3,1,12,02,36,303,38,03,59,292,45,06,00,104,00,15,61,060,48*79
$GPGSV,3,2,12,17,44,056,46,18,46,109,46,21,35,155,43,22,53,201,44*7B
$GPGSV,3,3,12,23,28,047,46,26,06,052,00,27,11,323,00,31,20,289,33*71
$GPGLL,4924.6013,N,00842.9889,E,134358,A,A*4E
$GPBOD,,T,,M,,*47
$PGRME,4.0,M,9.4,M,10.4,M*12
$PGRMZ,695,f,3*11
$GPRTE,1,1,c,*37
$GPRMC,134400,A,4924.6018,N,00842.9914,E,1.7,82.2,010302,0.2,E,A*2A
$GPRMB,A,,,,,,,,,,,,A,A*0B
$GPGGA,134400,4924.6018,N,00842.9914,E,1,09,1.1,211.8,M,47.9,M,,*46
